     3.03           OBSERVATION DATA    M (MIXED)           RINEX VERSION / TYPE
RTCM2RINEX 1.2.19   NRCan               20210103 00:16:50UTCPGM / RUN BY / DATE
gfzrnx-1.11-7352    FILE MERGE          20210104 001221 UTC COMMENT
   918129.4000 -4346071.2000  4561977.8000                  APPROX POSITION XYZ
This data is subject to the Open Government Licence- Canada COMMENT
https://open.canada.ca/en/open-government-licence-canada    COMMENT
DBHZ                                                        SIGNAL STRENGTH UNIT
    18                  GPS                                 LEAP SECONDS
     1     1                                                WAVELENGTH FACT L1/2
E L1C  0.00000                                              SYS / PHASE SHIFT
E L5Q  0.00000                                              SYS / PHASE SHIFT
E L6C  0.00000                                              SYS / PHASE SHIFT
E L7Q  0.00000                                              SYS / PHASE SHIFT
E L8Q  0.00000                                              SYS / PHASE SHIFT
G L1C                                                       SYS / PHASE SHIFT
G L1W  0.00000                                              SYS / PHASE SHIFT
G L2L  0.00000                                              SYS / PHASE SHIFT
G L2W                                                       SYS / PHASE SHIFT
G L5Q  0.00000                                              SYS / PHASE SHIFT
R L1C                                                       SYS / PHASE SHIFT
R L1P  0.00000                                              SYS / PHASE SHIFT
R L2C                                                       SYS / PHASE SHIFT
R L2P  0.00000                                              SYS / PHASE SHIFT
3015995             SEPT POLARX5        5.3.2               REC # / TYPE / VERS
ALGO CACS-GSD 883160 Algonquin Park ON Canada               MARKER NAME
        0.1000        0.0000        0.0000                  ANTENNA: DELTA H/E/N
40104M002                                                   MARKER NUMBER
ACSOPS              NRCan                                   OBSERVER / AGENCY
 24 R01  1 R02 -4 R03  5 R04  6 R05  1 R06 -4 R07  5 R08  6 GLONASS SLOT / FRQ #
    R09 -2 R10 -7 R11  0 R12 -1 R13 -2 R14 -7 R15  0 R16 -1 GLONASS SLOT / FRQ #
    R17  4 R18 -3 R19  3 R20  2 R21  4 R22 -3 R23  3 R24  2 GLONASS SLOT / FRQ #
 C1C    0.000 C1P    0.000 C2C    0.000 C2P    0.000        GLONASS COD/PHS/BIS
303                 AOAD/M_T        NONE                    ANT # / TYPE
E   20 C1C C5Q C6C C7Q C8Q D1C D5Q D6C D7Q D8Q L1C L5Q L6C  SYS / # / OBS TYPES
       L7Q L8Q S1C S5Q S6C S7Q S8Q                          SYS / # / OBS TYPES
G   20 C1C C1W C2L C2W C5Q D1C D1W D2L D2W D5Q L1C L1W L2L  SYS / # / OBS TYPES
       L2W L5Q S1C S1W S2L S2W S5Q                          SYS / # / OBS TYPES
R   16 C1C C1P C2C C2P D1C D1P D2C D2P L1C L1P L2C L2P S1C  SYS / # / OBS TYPES
       S1P S2C S2P                                          SYS / # / OBS TYPES
    81                                                      # OF SATELLITES
   E01   644   645   643   645   645   644   645   643   645PRN / # OF OBS
         645   644   645   643   645   645   644   645   643PRN / # OF OBS
         645   645                                          PRN / # OF OBS
   E02  1302  1313  1313  1311  1311  1302  1313  1313  1311PRN / # OF OBS
        1311  1302  1313  1313  1311  1311  1302  1313  1313PRN / # OF OBS
        1311  1311                                          PRN / # OF OBS
   E03   873   879   880   882   880   873   879   880   882PRN / # OF OBS
         880   873   879   880   882   880   873   879   880PRN / # OF OBS
         882   880                                          PRN / # OF OBS
   E04   860   872   863   873   865   860   872   863   873PRN / # OF OBS
         865   860   872   863   873   865   860   872   863PRN / # OF OBS
         873   865                                          PRN / # OF OBS
   E05   739   745   743   745   744   739   745   743   745PRN / # OF OBS
         744   739   745   743   745   744   739   745   743PRN / # OF OBS
         745   744                                          PRN / # OF OBS
   E07  1056  1057  1057  1056  1056  1056  1057  1057  1056PRN / # OF OBS
        1056  1056  1057  1057  1056  1056  1056  1057  1057PRN / # OF OBS
        1056  1056                                          PRN / # OF OBS
   E08  1171  1177  1175  1176  1175  1171  1177  1175  1176PRN / # OF OBS
        1175  1171  1177  1175  1176  1175  1171  1177  1175PRN / # OF OBS
        1176  1175                                          PRN / # OF OBS
   E09   826   835   845   842   842   826   835   845   842PRN / # OF OBS
         842   826   835   845   842   842   826   835   845PRN / # OF OBS
         842   842                                          PRN / # OF OBS
   E11   625   625   625   625   625   625   625   625   625PRN / # OF OBS
         625   625   625   625   625   625   625   625   625PRN / # OF OBS
         625   625                                          PRN / # OF OBS
   E12   582   606   598   605   595   582   606   598   605PRN / # OF OBS
         595   582   606   598   605   595   582   606   598PRN / # OF OBS
         605   595                                          PRN / # OF OBS
   E13  1292  1294  1295  1293  1293  1292  1294  1295  1293PRN / # OF OBS
        1293  1292  1294  1295  1293  1293  1292  1294  1295PRN / # OF OBS
        1293  1293                                          PRN / # OF OBS
   E14   660   660   660   660   660   660   660   660   660PRN / # OF OBS
         660   660   660   660   660   660   660   660   660PRN / # OF OBS
         660   660                                          PRN / # OF OBS
   E15  1258  1272  1269  1268  1273  1258  1272  1269  1268PRN / # OF OBS
        1273  1258  1272  1269  1268  1273  1258  1272  1269PRN / # OF OBS
        1268  1273                                          PRN / # OF OBS
   E18   671   673   673   679   688   671   673   673   679PRN / # OF OBS
         688   671   673   673   679   688   671   673   673PRN / # OF OBS
         679   688                                          PRN / # OF OBS
   E19   853   854   852   854   855   853   854   852   854PRN / # OF OBS
         855   853   854   852   854   855   853   854   852PRN / # OF OBS
         854   855                                          PRN / # OF OBS
   E20   846                           846                  PRN / # OF OBS
               846                           846            PRN / # OF OBS
                                                            PRN / # OF OBS
   E21  1218  1224  1221  1223  1217  1218  1224  1221  1223PRN / # OF OBS
        1217  1218  1224  1221  1223  1217  1218  1224  1221PRN / # OF OBS
        1223  1217                                          PRN / # OF OBS
   E24   300   300   300   300   300   300   300   300   300PRN / # OF OBS
         300   300   300   300   300   300   300   300   300PRN / # OF OBS
         300   300                                          PRN / # OF OBS
   E25   842   869   861   875   869   842   869   861   875PRN / # OF OBS
         869   842   869   861   875   869   842   869   861PRN / # OF OBS
         875   869                                          PRN / # OF OBS
   E26   994   996   995   995   995   994   996   995   995PRN / # OF OBS
         995   994   996   995   995   995   994   996   995PRN / # OF OBS
         995   995                                          PRN / # OF OBS
   E27  1347  1350  1343  1353  1363  1347  1350  1343  1353PRN / # OF OBS
        1363  1347  1350  1343  1353  1363  1347  1350  1343PRN / # OF OBS
        1353  1363                                          PRN / # OF OBS
   E30  1422  1425  1425  1424  1422  1422  1425  1425  1424PRN / # OF OBS
        1422  1422  1425  1425  1424  1422  1422  1425  1425PRN / # OF OBS
        1424  1422                                          PRN / # OF OBS
   E31   313   316   315   316   313   313   316   315   316PRN / # OF OBS
         313   313   316   315   316   313   313   316   315PRN / # OF OBS
         316   313                                          PRN / # OF OBS
   E33   623   641   638   642   654   623   641   638   642PRN / # OF OBS
         654   623   641   638   642   654   623   641   638PRN / # OF OBS
         642   654                                          PRN / # OF OBS
   E36   973   974   973   974   973   973   974   973   974PRN / # OF OBS
         973   973   974   973   974   973   973   974   973PRN / # OF OBS
         974   973                                          PRN / # OF OBS
   G01   892   892   892   892   892   892   892   892   892PRN / # OF OBS
         892   892   892   892   892   892   892   892   892PRN / # OF OBS
         892   892                                          PRN / # OF OBS
   G02   857   857         857         857   857         857PRN / # OF OBS
               857   857         857         857   857      PRN / # OF OBS
         857                                                PRN / # OF OBS
   G03   995   995   991   995   995   995   995   991   995PRN / # OF OBS
         995   995   995   991   995   995   995   995   991PRN / # OF OBS
         995   995                                          PRN / # OF OBS
   G04   931   930   931   930   931   931   930   931   930PRN / # OF OBS
         931   931   930   931   930   931   931   930   931PRN / # OF OBS
         930   931                                          PRN / # OF OBS
   G05   778   778   777   778         778   778   777   778PRN / # OF OBS
               778   778   777   778         778   778   777PRN / # OF OBS
         778                                                PRN / # OF OBS
   G06   740   740   740   740   740   740   740   740   740PRN / # OF OBS
         740   740   740   740   740   740   740   740   740PRN / # OF OBS
         740   740                                          PRN / # OF OBS
   G07   847   846   836   846         847   846   836   846PRN / # OF OBS
               846   846   836   846         847   846   836PRN / # OF OBS
         846                                                PRN / # OF OBS
   G08   800   798   798   798   800   800   798   798   798PRN / # OF OBS
         800   800   798   798   798   800   800   798   798PRN / # OF OBS
         798   800                                          PRN / # OF OBS
   G09   976   976   975   976   976   976   976   975   976PRN / # OF OBS
         976   976   976   975   976   976   976   976   975PRN / # OF OBS
         976   976                                          PRN / # OF OBS
   G10   767   766   767   766   767   767   766   767   766PRN / # OF OBS
         767   767   766   767   766   767   767   766   767PRN / # OF OBS
         766   767                                          PRN / # OF OBS
   G11   740   740         740         740   740         740PRN / # OF OBS
               740   740         740         740   740      PRN / # OF OBS
         740                                                PRN / # OF OBS
   G12   992   992   992   992         992   992   992   992PRN / # OF OBS
               992   992   992   992         992   992   992PRN / # OF OBS
         992                                                PRN / # OF OBS
   G13   870   870         870         870   870         870PRN / # OF OBS
               870   870         870         870   870      PRN / # OF OBS
         870                                                PRN / # OF OBS
   G14   797   795   797   795   797   797   795   797   795PRN / # OF OBS
         797   796   795   797   795   797   797   795   797PRN / # OF OBS
         795   797                                          PRN / # OF OBS
   G15   723   723   715   723         723   723   715   723PRN / # OF OBS
               723   723   715   723         723   723   715PRN / # OF OBS
         723                                                PRN / # OF OBS
   G16   695   695         695         695   695         695PRN / # OF OBS
               695   695         695         695   695      PRN / # OF OBS
         695                                                PRN / # OF OBS
   G17   809   809   809   809         809   809   809   809PRN / # OF OBS
               809   809   809   809         809   809   809PRN / # OF OBS
         809                                                PRN / # OF OBS
   G18   873   872   873   872   873   873   872   873   872PRN / # OF OBS
         873   873   872   873   872   873   873   872   873PRN / # OF OBS
         872   873                                          PRN / # OF OBS
   G19   727   727         727         727   727         727PRN / # OF OBS
               727   727         727         727   727      PRN / # OF OBS
         727                                                PRN / # OF OBS
   G20   786   786         786         786   786         786PRN / # OF OBS
               786   786         786         786   786      PRN / # OF OBS
         786                                                PRN / # OF OBS
   G21  1009  1009        1009        1009  1009        1009PRN / # OF OBS
              1009  1009        1009        1009  1009      PRN / # OF OBS
        1009                                                PRN / # OF OBS
   G22   947   947         947         947   947         947PRN / # OF OBS
               947   947         947         947   947      PRN / # OF OBS
         947                                                PRN / # OF OBS
   G23   771   771   770   771   771   771   771   770   771PRN / # OF OBS
         771   771   771   770   771   771   771   771   770PRN / # OF OBS
         771   771                                          PRN / # OF OBS
   G24   874   874   871   874   874   874   874   871   874PRN / # OF OBS
         874   874   874   871   874   874   874   874   871PRN / # OF OBS
         874   874                                          PRN / # OF OBS
   G25   938   938   932   938   938   938   938   932   938PRN / # OF OBS
         938   938   938   932   938   938   938   938   932PRN / # OF OBS
         938   938                                          PRN / # OF OBS
   G26   834   832   826   832   833   834   832   826   832PRN / # OF OBS
         833   834   832   826   832   833   834   832   826PRN / # OF OBS
         832   833                                          PRN / # OF OBS
   G27   919   919   919   919   919   919   919   919   919PRN / # OF OBS
         919   919   919   919   919   919   919   919   919PRN / # OF OBS
         919   919                                          PRN / # OF OBS
   G28   789   789         789         789   789         789PRN / # OF OBS
               789   789         789         789   789      PRN / # OF OBS
         789                                                PRN / # OF OBS
   G29   999   999   998   999         999   999   998   999PRN / # OF OBS
               999   999   998   999         999   999   998PRN / # OF OBS
         999                                                PRN / # OF OBS
   G30   893   893   891   893   893   893   893   891   893PRN / # OF OBS
         893   893   893   891   893   893   893   893   891PRN / # OF OBS
         893   893                                          PRN / # OF OBS
   G31   793   793   793   793         793   793   793   793PRN / # OF OBS
               793   793   793   793         793   793   793PRN / # OF OBS
         793                                                PRN / # OF OBS
   G32   836   836   836   836   836   836   836   836   836PRN / # OF OBS
         836   836   836   836   836   836   836   836   836PRN / # OF OBS
         836   836                                          PRN / # OF OBS
   R01  1011  1008   997   990  1011  1008   997   990  1010PRN / # OF OBS
        1007   997   990  1011  1008   997   990            PRN / # OF OBS
   R02  1086  1087  1080  1082  1086  1087  1080  1082  1086PRN / # OF OBS
        1086  1079  1079  1086  1087  1080  1082            PRN / # OF OBS
   R03  1000  1002   991   986  1000  1002   991   986   992PRN / # OF OBS
         990   990   980  1000  1002   991   986            PRN / # OF OBS
   R04   800   791   791   783   800   791   791   783   797PRN / # OF OBS
         786   787   778   800   791   791   783            PRN / # OF OBS
   R05   834   835   829   832   834   835   829   832   829PRN / # OF OBS
         827   827   825   834   835   829   832            PRN / # OF OBS
   R06   945   946               945   946               945PRN / # OF OBS
         945               945   946                        PRN / # OF OBS
   R07   995   997   996   987   995   997   996   987   993PRN / # OF OBS
         994   995   986   995   997   996   987            PRN / # OF OBS
   R08  1012  1002  1016  1014  1012  1002  1016  1014  1012PRN / # OF OBS
        1002  1016  1013  1012  1002  1016  1014            PRN / # OF OBS
   R09   837   836   838   835   837   836   838   835   834PRN / # OF OBS
         832   838   834   837   836   838   835            PRN / # OF OBS
   R10  1023  1019              1023  1019              1022PRN / # OF OBS
        1014              1023  1019                        PRN / # OF OBS
   R11  1050  1047  1050  1046  1050  1047  1050  1046  1044PRN / # OF OBS
        1037  1044  1038  1050  1047  1050  1046            PRN / # OF OBS
   R12  1143  1143  1136  1133  1143  1143  1136  1133  1139PRN / # OF OBS
        1139  1135  1132  1143  1143  1136  1133            PRN / # OF OBS
   R13   921   919   923   928   921   919   923   928   921PRN / # OF OBS
         914   920   918   921   919   923   928            PRN / # OF OBS
   R14   929   930   935   934   929   930   935   934   929PRN / # OF OBS
         929   934   933   929   930   935   934            PRN / # OF OBS
   R15   925   927   921   920   925   927   921   920   924PRN / # OF OBS
         924   921   920   925   927   921   920            PRN / # OF OBS
   R16   865   859   856   855   865   859   856   855   865PRN / # OF OBS
         859   855   853   865   859   856   855            PRN / # OF OBS
   R17   819   812   817   813   819   812   817   813   816PRN / # OF OBS
         811   813   807   819   812   817   813            PRN / # OF OBS
   R18   893   893   888   885   893   893   888   885   887PRN / # OF OBS
         885   888   884   893   893   888   885            PRN / # OF OBS
   R19   888   887   905   896   888   887   905   896   888PRN / # OF OBS
         887   902   893   888   887   905   896            PRN / # OF OBS
   R20  1133  1124  1151  1137  1133  1124  1151  1137  1133PRN / # OF OBS
        1122  1151  1137  1133  1124  1151  1137            PRN / # OF OBS
   R21  1158  1157  1158  1157  1158  1157  1158  1157  1158PRN / # OF OBS
        1157  1158  1157  1158  1157  1158  1157            PRN / # OF OBS
   R22  1137  1134   846   766  1137  1134   846   766  1129PRN / # OF OBS
        1125   846   750  1137  1134   846   766            PRN / # OF OBS
   R23   901   901               901   901               901PRN / # OF OBS
         898               901   901                        PRN / # OF OBS
   R24   769   759   736   733   769   759   736   733   761PRN / # OF OBS
         749   733   724   769   759   736   733            PRN / # OF OBS
    30.000                                                  INTERVAL
  2021     1     3     0     0    0.0000000     GPS         TIME OF FIRST OBS
  2021     1     3    23    59   30.0000000     GPS         TIME OF LAST OBS
                                                            END OF HEADER
> 2021 01 03 00 00 00.0000000  0 25
E02  26912244.304    26912249.723    26912252.112    26912243.161    26912245.478       -2358.518       -1761.422       -1914.510       -1807.229       -1784.328   141424817.047   105609462.649   114792913.610   108364467.687   106986972.747          43.310          45.060          39.870          45.250          48.120
E03  26927700.212    26927707.001    26927706.473    26927700.487    26927702.724        2176.506        1625.336        1766.699        1667.682        1646.519   141506011.416   105670132.651   114858843.920   108426723.042   107048439.924          43.000          44.680          42.680          44.870          47.680
E08  25391557.664    25391562.360    25391567.310    25391557.604    25391558.826          38.158          28.494          30.985          29.203          28.842   133433563.869    99641961.653   108306491.489   102241279.743   100941635.775          40.180          38.680          42.810          42.810          44.060
E11  22926394.337    22926397.301    22926398.200    22926391.173    22926393.217       -2358.790       -1761.407       -1914.636       -1807.343       -1784.361   120479050.172    89968144.758    97791460.169    92315109.817    91141641.366          45.500          45.620          45.250          46.680          49.060
E12  23196134.374    23196137.388    23196137.988    23196131.412    23196133.269         485.033         362.209         393.665         371.650         366.944   121896544.095    91026686.594    98942045.808    93401271.167    92213990.958          45.120          46.620          45.560          47.750          50.120
E24  24665661.766    24665666.596    24665668.447    24665660.257    24665662.561        1485.565        1109.285        1205.824        1138.277        1123.781   129618979.577    96793443.133   105210265.048    99318466.628    98055963.959          48.870          50.180          49.370          51.430          53.810
E25  23770759.243    23770765.816    23770765.070    23770759.375    23770761.590        -888.856        -663.752        -721.469        -681.079        -672.414   124916207.802    93281622.436   101393066.217    95715027.182    94498340.387          49.310          51.930          51.310          53.250          55.560
E33  28254331.208    28254337.920    28254337.121    28254331.010    28254332.567        2634.426        1967.131        2138.215        2018.510        1992.854   148477556.855   110876143.760   120517547.177   113768534.366   112322350.144          29.680          32.870          28.060          34.250          36.430
G01  23177598.207    23177597.927    23177601.784    23177601.847    23177604.314       -3724.244       -3724.244       -2901.954       -2902.012       -2781.034   121799118.023   121799118.023    94908413.885    94908419.859    90953912.401          41.680          28.560          40.120          28.560          44.430
G07  20345935.235    20345934.815    20345933.442    20345932.896                         148.308         148.308         115.561         115.564                   106918645.260   106918645.260    83313246.020    83313248.011                          50.120          46.680          48.930          46.680
G08  20514815.407    20514814.764    20514817.598    20514816.676    20514819.336        1354.919        1354.919        1055.745        1055.783        1011.788   107806153.048   107806153.048    84004841.805    84004813.801    80504632.994          50.060          56.120          49.060          56.120          53.620
G11  21044182.608    21044181.929                    21044180.412                       -1901.212       -1901.212                       -1481.465                   110587983.458   110587983.458                    86172458.104                          49.680          41.680                          41.680
G13  24342330.527    24342330.147                    24342328.930                       -2134.615       -2134.615                       -1663.319                   127919811.615   127919811.615                    99677760.000                          39.620          18.620                          18.620
G14  22818732.843    22818732.593    22818732.623    22818732.311    22818739.916       -2700.491       -2700.491       -2104.341       -2104.274       -2016.684   119913269.900   119913269.900    93438904.912    93438918.903    89545667.265          44.250          33.000          43.310          33.000          47.560
G21  22046578.711    22046577.595                    22046576.448                       -1831.049       -1831.049                       -1426.786                   115855572.696   115855572.696                    90277084.613                          47.810          36.930                          36.930
G27  22867492.234    22867491.604    22867493.204    22867492.440    22867496.056        3304.396        3304.396        2574.897        2574.855        2467.673   120169547.221   120169547.221    93638654.763    93638651.753    89737051.038          44.810          46.060          43.250          46.060          47.250
G28  23416268.454    23416267.606                    23416266.183                       -2439.401       -2439.401                       -1900.827                   123053327.612   123053327.612                    95885714.573                          42.060          26.560                          26.560
G30  21243918.920    21243918.197    21243919.805    21243919.166    21243922.917       -1834.766       -1834.766       -1429.674       -1429.691       -1370.120   111637572.780   111637572.780    86990337.327    86990326.317    83365749.470          50.180          43.750          47.560          43.750          52.750
R02  22995200.170    22995199.929    22995200.932    22995201.384         699.518         699.502         544.084         544.014   122706780.304   122706804.310    95438636.207    95438634.212          48.370          47.750          39.500          39.430
R09  23750949.050    23750950.114    23750952.680    23750952.407        3567.183        3567.243        2774.509        2774.477   126828777.095   126828775.099    98644630.102    98644629.107          44.430          44.120          39.680          39.370
R10  20075641.423    20075640.855                                        1715.942        1715.994                                   107014505.960   107014509.965                                          52.000          52.120
R11  19934048.012    19934047.954    19934049.811    19934049.887       -2010.112       -2010.111       -1563.392       -1563.367   106521542.159   106521536.152    82850130.102    82850112.113          52.930          53.060          50.930          50.680
R12  23818102.159    23818103.353    23818108.566    23818108.553       -3687.101       -3686.796       -2867.618       -2867.726   127232045.320   127232051.330    98958285.062    98958273.066          39.750          40.430          39.500          38.750
R20  20064299.004    20064298.986    20064304.981    20064304.350        1493.292        1493.418        1161.494        1161.459   107292869.025   107292866.038    83450052.754    83450053.758          42.680          41.750          49.810          50.870
R21  20466073.931    20466073.882    20466078.731    20466078.923       -3169.779       -3169.746       -2465.367       -2465.359   109518545.169   109518128.168    85181050.925    85180810.925          53.060          52.870          49.750          49.310
> 2021 01 03 00 00 30.0000000  0 25
E02  26898780.821    26898787.094    26898787.801    26898780.053    26898782.295       -2357.970       -1760.729       -1913.895       -1806.696       -1783.724   141354068.510   105556630.989   114735487.858   108310257.784   106933451.964          43.060          45.180          39.500          44.870          47.930
E03  26940147.890    26940154.786    26940154.701    26940148.237    26940150.550        2184.539        1631.210        1773.140        1673.747        1652.492   141571425.156   105718980.544   114911939.463   108476845.246   107097924.974          43.560          44.930          42.560          45.120          48.000
E08  25391817.059    25391820.743    25391825.305    25391814.905    25391817.147          52.394          39.059          42.448          40.180          39.631   133434921.683    99642975.598   108307593.622   102242320.132   100942662.942          41.930          38.430          41.750          42.120          43.430
E11  22912957.460    22912960.746    22912961.873    22912954.564    22912956.810       -2348.499       -1753.696       -1906.214       -1799.432       -1776.561   120408441.504    89915417.540    97734147.962    92261007.108    91088226.402          45.620          45.500          45.250          46.750          49.060
E12  23198945.594    23198948.317    23198949.020    23198942.618    23198944.568         499.842         373.254         405.735         383.001         378.137   121911317.500    91037718.685    98954037.207    93412591.051    92225166.946          45.310          46.500          45.370          47.750          50.120
E24  24674158.403    24674163.447    24674165.411    24674156.926    24674159.328        1491.110        1113.563        1210.414        1142.585        1128.073   129663630.417    96826786.291   105246507.610    99352679.605    98089742.026          49.060          50.310          49.250          51.370          53.750
E25  23765701.417    23765707.781    23765707.271    23765701.522    23765703.679        -883.128        -659.500        -716.796        -676.679        -668.093   124889628.354    93261774.151   101371491.993    95694661.114    94478233.210          49.810          51.930          51.250          53.310          55.560
E33  28269388.771    28269394.902    28269396.906    28269388.814    28269390.885        2641.868        1972.463        2143.785        2023.704        1998.036   148556690.179   110935236.830   120581778.754   113829168.947   112382213.968          28.120          32.370          31.180          33.620          36.000
G01  23156354.110    23156353.865    23156356.337    23156356.869    23156360.119       -3718.629       -3718.629       -2897.531       -2897.632       -2776.859   121687475.339   121687475.339    94821419.605    94821425.591    90870542.900          41.680          28.310          39.310          28.310          45.870
G07  20346833.790    20346833.370    20346831.965    20346831.563                         166.547         166.547         129.770         129.777                   106923367.564   106923367.564    83316925.742    83316927.729                          49.870          46.750          48.680          46.750
G08  20522593.785    20522593.137    20522595.860    20522595.059    20522597.804        1370.120        1370.120        1067.605        1067.628        1023.131   107847028.960   107847028.960    84036693.166    84036665.164    80535157.217          49.750          56.060          48.810          56.060          53.680
G11  21033377.893    21033377.205                    21033375.474                       -1884.125       -1884.125                       -1468.150                   110531202.922   110531202.922                    86128213.543                          49.810          41.930                          41.930
G13  24330189.669    24330189.321                    24330187.840                       -2118.783       -2118.783                       -1650.990                   127856011.187   127856011.187                    99628045.370                          40.250          20.310                          20.310
G14  22803328.971    22803328.730    22803327.821    22803327.374    22803335.802       -2696.114       -2696.114       -2100.843       -2100.870       -2013.312   119832319.757   119832319.757    93375826.877    93375840.873    89485217.502          45.000          33.000          42.810          33.000          47.930
G21  22036168.698    22036167.581                    22036166.605                       -1815.965       -1815.965                       -1415.033                   115800867.938   115800867.938                    90234457.562                          48.120          37.310                          37.310
G27  22886375.109    22886374.479    22886375.775    22886375.221    22886379.150        3310.856        3310.856        2579.889        2579.887        2472.361   120268777.036   120268777.036    93715976.703    93715973.695    89811151.222          44.680          46.370          42.810          46.370          47.560
G28  23402351.558    23402350.722                    23402349.429                       -2436.031       -2436.031                       -1898.210                   122980196.053   122980196.053                    95828728.943                          42.060          26.180                          26.180
G30  21233486.088    21233485.364    21233487.398    21233486.835    21233490.613       -1820.098       -1820.098       -1418.289       -1418.258       -1359.150   111582750.349   111582750.349    86947618.553    86947607.547    83324810.652          49.930          43.930          47.430          43.930          52.810
R02  22999200.859    22999200.891    22999204.009    22999203.678         723.976         724.023         563.118         563.058   122728133.893   122728157.904    95455244.544    95455242.545          48.060          47.120          39.810          39.370
R09  23771005.403    23771006.678    23771008.443    23771008.917        3572.584        3572.603        2778.698        2778.839   126935875.622   126935873.629    98727928.969    98727927.987          44.930          44.250          40.120          39.810
R10  20085340.824    20085340.690                                        1731.012        1730.987                                   107066210.918   107066214.921                                          51.680          52.120
R11  19922797.267    19922797.200    19922798.735    19922798.739       -1998.012       -1997.995       -1553.997       -1554.010   106461420.012   106461414.017    82803368.444    82803350.448          53.430          53.120          50.870          50.810
R12  23797395.461    23797394.911    23797399.060    23797398.381       -3688.288       -3688.057       -2868.614       -2868.550   127121417.441   127121423.437    98872241.173    98872229.166          44.180          42.560          39.250          38.500
R20  20072747.911    20072747.956    20072754.085    20072753.611        1518.880        1518.919        1181.276        1181.305   107338050.766   107338047.774    83485194.110    83485195.119          42.870          41.680          50.060          50.930
R21  20448357.479    20448357.546    20448361.783    20448362.055       -3150.338       -3150.345       -2450.243       -2450.280   109423742.313   109423325.309    85107315.418    85107075.418          53.250          52.750          48.750          49.250
> 2021 01 03 00 01 00.0000000  0 26
E02  26885321.684    26885327.457    26885329.018    26885320.608    26885322.886       -2357.289       -1760.344       -1913.426       -1806.177       -1783.279   141283338.845   105503813.394   114678077.403   108256062.339   106879945.444          42.870          44.500          40.810          44.500          47.430
E03  26952640.696    26952648.124    26952647.163    26952641.217    26952643.571        2192.363        1637.164        1779.398        1679.809        1658.488   141637075.970   105768005.492   114965227.445   108527149.104   107147589.377          43.370          45.250          42.060          45.430          48.250
E08  25392156.401    25392160.551    25392165.617    25392155.594    25392156.811          66.785          49.648          54.106          51.100          50.401   133436708.129    99644309.650   108309043.652   102243688.961   100944014.382          41.180          38.500          42.000          42.930          44.000
E11  22899579.644    22899582.380    22899583.583    22899576.355    22899578.627       -2338.362       -1746.218       -1898.052       -1791.802       -1769.007   120338138.602    89862918.632    97677083.927    92207138.656    91035042.721          45.370          45.370          45.370          46.930          49.120
E12  23201841.211    23201844.297    23201844.860    23201838.539    23201840.432         514.593         384.374         417.780         394.420         389.395   121926535.421    91049082.737    98966389.423    93424251.560    92236679.226          44.680          46.500          45.500          48.000          50.180
E24  24682687.102    24682692.240    24682693.913    24682685.696    24682688.116        1496.786        1117.731        1214.921        1146.869        1132.300   129708449.326    96860254.947   105282886.584    99387021.357    98123647.230          48.430          50.180          49.310          51.560          53.870
E25  23760676.221    23760682.495    23760682.182    23760676.340    23760678.483        -877.383        -655.218        -712.179        -672.253        -663.728   124863220.759    93242054.189   101350057.250    95674426.720    94458256.033          49.370          51.810          51.500          53.560          55.680
E33  28284489.709    28284492.343    28284495.599    28284486.233    28284488.393        2647.906        1977.255        2149.202        2029.294        2003.185   148636029.286   110994483.651   120646177.435   113889961.334   112442233.565          30.500          31.810          33.000          32.810          35.250
E36                  28026898.327                    28026892.092                                       -2462.422                       -2526.759                                   109983567.714                   112852681.262                                          34.680                          36.620
G01  23135141.403    23135141.104    23135143.411    23135143.030    23135146.451       -3712.994       -3712.994       -2893.176       -2893.253       -2772.663   121576001.268   121576001.268    94734556.696    94734562.690    90787299.320          42.370          28.060          39.370          28.060          45.310
G07  20347836.430    20347836.011    20347834.744    20347834.364                         184.755         184.755         143.983         143.965                   106928637.099   106928637.099    83321031.861    83321033.852                          49.930          46.560          48.750          46.560
G08  20530459.459    20530458.811    20530460.867    20530460.102    20530463.044        1385.337        1385.337        1079.474        1079.483        1034.470   107888360.472   107888360.472    84068899.545    84068871.540    80566021.662          50.430          56.000          48.680          56.000          53.680
G11  21022670.472    21022669.788                    21022668.089                       -1866.999       -1866.999                       -1454.804                   110474935.231   110474935.231                    86084368.602                          50.180          41.870                          41.870
G13  24318140.833    24318140.476                    24318137.873                       -2102.659       -2102.659                       -1638.435                   127792691.816   127792691.816                    99578705.603                          42.680          23.310                          23.310
G14  22787950.493    22787950.239    22787949.862    22787949.437    22787956.931       -2691.526       -2691.526       -2097.255       -2097.294       -2009.911   119751505.578   119751505.578    93312854.797    93312868.791    89424869.264          44.870          33.370          42.870          33.370          47.750
G21  22025845.265    22025844.147                    22025842.970                       -1800.713       -1800.713                       -1403.158                   115746617.776   115746617.776                    90192184.715                          48.060          37.430                          37.430
G27  22905294.016    22905293.383    22905294.826    22905294.499    22905297.687        3317.113        3317.113        2584.756        2584.763        2477.069   120368196.562   120368196.562    93793446.434    93793443.431    89885393.064          44.500          46.000          43.310          46.000          47.060
G28  23388454.023    23388453.187                    23388452.167                       -2432.551       -2432.551                       -1895.494                   122907166.713   122907166.713                    95771822.966                          42.120          26.430                          26.430
G30  21223138.079    21223137.350    21223139.017    21223138.615    21223142.388       -1805.225       -1805.225       -1406.707       -1406.668       -1348.074   111528369.874   111528369.874    86905244.162    86905233.152    83284201.860          50.180          44.060          47.250          44.060          52.870
R02  23003339.096    23003338.907    23003342.693    23003342.156         748.472         748.426         582.087         582.137   122750220.314   122750244.321    95472422.863    95472420.880          46.810          46.120          39.750          39.060
R09  23791092.844    23791092.800    23791094.909    23791096.023        3578.141        3578.219        2783.049        2782.979   127043137.026   127043135.043    98811354.559    98811353.554          43.560          42.810          40.180          39.680
R10  20095125.401    20095124.989                                        1746.147        1746.132                                   107118368.257   107118372.263                                          51.750          52.000
R11  19911613.363    19911613.810    19911615.466    19911615.627       -1985.876       -1985.890       -1544.591       -1544.593   106401660.842   106401654.843    82756889.093    82756871.100          53.060          53.120          50.680          50.680
R12  23776678.925    23776678.733    23776681.076    23776681.644       -3689.380       -3689.458       -2869.649       -2869.532   127010751.198   127010757.191    98786167.405    98786155.419          45.250          44.060          39.370          39.000
R20  20081340.559    20081339.857    20081346.102    20081345.503        1544.150        1544.203        1201.113        1201.037   107383996.044   107383993.043    83520929.333    83520930.335          43.000          41.680          50.000          50.810
R21  20430750.483    20430750.792    20430755.631    20430755.475       -3130.770       -3130.759       -2434.955       -2435.008   109329524.782   109329107.783    85034035.172    85033795.166          52.930          52.870          49.680          49.370
> 2021 01 03 00 01 30.0000000  0 26
E02  26871865.637    26871871.486    26871873.436    26871865.098    26871867.009       -2356.694       -1759.854       -1912.964       -1805.802       -1782.811   141212628.373   105451010.149   114620682.548   108201881.596   106826453.452          42.180          44.180          41.810          43.680          46.750
E03  26965178.755    26965185.476    26965184.796    26965178.972    26965181.325        2200.160        1642.891        1785.864        1685.823        1664.354   141702961.978   105817206.070   115018706.353   108577633.188   107197431.706          43.120          45.000          41.680          45.250          48.120
E08  25392577.905    25392583.079    25392586.777    25392576.427    25392578.575          80.909          60.472          65.799          61.964          61.224   133438922.986    99645963.588   108310841.419   102245386.063   100945689.905          40.500          40.250          42.370          42.120          44.120
E11  22886259.682    22886262.955    22886263.858    22886256.634    22886258.907       -2328.012       -1738.459       -1889.528       -1783.779       -1761.111   120268143.087    89810649.270    97620269.404    92153505.751    90982091.589          44.680          45.810          45.370          46.680          49.180
E12  23204821.668    23204824.821    23204825.425    23204818.911    23204820.791         529.472         395.427         429.815         405.682         400.553   121942197.305    91060778.297    98979101.990    93436252.214    92248527.332          44.310          46.620          45.620          47.680          50.120
E24  24691248.050    24691252.920    24691254.816    24691246.573    24691248.895        1502.388        1121.904        1219.464        1151.223        1136.570   129753436.349    96893849.147   105319402.019    99421491.933    98157679.619          48.310          50.180          49.310          51.310          53.750
E25  23755683.860    23755690.183    23755689.611    23755683.956    23755686.104        -871.647        -650.882        -707.471        -667.856        -659.369   124836985.558    93222462.972   101328762.450    95654324.430    94438409.279          49.000          52.000          51.430          53.310          55.620
E33  28299624.738    28299629.962    28299631.702    28299622.451    28299625.019        2654.465        1982.832        2154.730        2034.369        2008.616   148715572.543   111053882.840   120710741.765   113950910.065   112502407.532          28.120          31.250          33.180          32.370          34.680
E36  28008060.410    28008069.237    28008066.747    28008062.827    28008065.279       -3298.495       -2463.502       -2677.689       -2527.590       -2495.498   147183351.462   109909678.283   119467041.721   112776864.309   111343282.377          32.120          35.810          31.370          36.680          39.250
G01  23113961.559    23113961.245    23113963.324    23113963.458    23113966.736       -3707.113       -3707.113       -2888.712       -2888.665       -2768.306   121464699.124   121464699.124    94647827.817    94647833.818    90704184.160          42.620          29.000          39.620          29.000          45.310
G07  20348943.399    20348942.983    20348941.654    20348941.319                         203.031         203.031         158.225         158.209                   106934454.439   106934454.439    83325564.848    83325566.840                          49.810          46.500          48.620          46.500
G08  20538410.674    20538410.022    20538412.118    20538411.412    20538414.429        1400.352        1400.352        1091.142        1091.182        1045.717   107930145.385   107930145.385    84101459.210    84101431.214    80597224.682          50.120          56.000          48.620          56.000          53.810
G11  21012061.007    21012060.319                    21012058.587                       -1849.837       -1849.837                       -1441.429                   110419182.281   110419182.281                    86040924.758                          49.930          41.870                          41.870
G13  24306183.080    24306182.736                    24306181.514                       -2086.411       -2086.411                       -1625.774                   127729855.616   127729855.616                    99529742.331                          41.680          24.620                          24.620
G14  22772598.375    22772598.121    22772597.248    22772596.814    22772605.019       -2687.066       -2687.066       -2093.712       -2093.814       -2006.488   119670828.057   119670828.057    93249989.202    93250003.192    89364623.086          44.870          33.620          43.180          33.620          48.180
G21  22015609.210    22015608.097                    22015606.594                       -1785.467       -1785.467                       -1391.265                   115692824.268   115692824.268                    90150267.729                          48.430          37.500                          37.500
G27  22924248.648    22924247.996    22924249.372    22924248.460    22924252.438        3323.341        3323.341        2589.517        2589.616        2481.586   120467803.377   120467803.377    93871062.148    93871059.150    89959774.774          44.430          45.560          43.310          45.560          47.120
G28  23374576.504    23374575.640                    23374574.715                       -2429.149       -2429.149                       -1892.846                   122834240.130   122834240.130                    95714997.059                          42.180          27.180                          27.180
G30  21212874.417    21212873.689    21212875.477    21212874.823    21212878.565       -1790.445       -1790.445       -1395.193       -1395.152       -1337.026   111474433.512   111474433.512    86863215.830    86863204.824    83243924.711          50.180          44.180          47.680          44.180          53.000
R02  23007614.798    23007615.357    23007618.932    23007618.646         772.780         772.760         601.136         601.091   122773038.445   122773062.443    95490170.340    95490168.335          47.430          46.620          39.620          39.810
R09  23811208.286    23811209.109    23811212.910    23811212.878        3583.478        3583.544        2787.188        2787.281   127150560.295   127150558.301    98894905.985    98894904.992          41.310          41.310          40.620          39.680
R10  20104994.451    20104994.379                                        1761.216        1761.216                                   107170977.344   107170981.347                                          51.750          51.930
R11  19900498.175    19900498.599    19900501.127    19900501.293       -1973.682       -1973.669       -1535.098       -1535.076   106342266.977   106342260.977    82710693.867    82710675.875          52.500          52.750          51.180          50.870
R12  23755953.684    23755953.880    23755958.133    23755958.522       -3690.627       -3690.704       -2870.543       -2870.604   126900048.308   126900054.304    98700065.196    98700053.202          44.000          43.680          41.310          40.060
R20  20090074.116    20090074.326    20090080.594    20090079.739        1569.502        1569.519        1220.731        1220.728   107430701.853   107430698.862    83557256.078    83557257.080          43.060          41.870          50.000          50.810
R21  20413253.802    20413253.994    20413258.687    20413258.709       -3111.106       -3111.110       -2419.723       -2419.784   109235895.982   109235478.982    84961212.798    84960972.793          52.870          52.810          49.120          49.370
> 2021 01 03 00 02 00.0000000  0 26
E02  26858413.266    26858419.231    26858421.100    26858411.877    26858414.874       -2356.083       -1759.472       -1912.281       -1805.344       -1782.394   141141937.476   105398221.512   114563303.599   108147715.848   106772976.259          42.000          43.370          42.310          42.370          45.750
E03  26977760.733    26977767.875    26977767.254    26977761.335    26977763.407        2207.815        1648.654        1792.020        1691.668        1670.171   141769081.258   105866580.849   115072374.602   108628296.001   107247450.503          43.370          44.870          40.810          45.500          48.120
E08  25393081.110    25393086.114    25393088.976    25393079.435    25393082.160          95.297          71.190          77.286          72.839          72.016   133441566.046    99647937.276   108312986.742   102247411.296   100947689.366          41.500          41.310          41.750          42.250          44.680
E11  22872998.740    22873001.875    22873002.573    22872995.675    22872997.935       -2317.770       -1730.782       -1881.178       -1775.923       -1753.346   120198456.508    89758610.613    97563705.630    92100109.554    90929374.162          45.310          45.680          45.060          46.750          49.180
E12  23207886.299    23207889.434    23207889.979    23207883.547    23207885.520         544.124         406.338         441.704         417.026         411.682   121958302.484    91072804.902    98992174.394    93448592.570    92260710.813          44.680          46.680          45.370          47.750          50.180
E24  24699840.783    24699845.568    24699847.746    24699839.403    24699841.600        1507.906        1126.080        1223.948        1155.463        1140.763   129798591.525    96927568.921   105356053.947    99456091.351    98191839.213          48.500          50.060          49.250          51.560          53.810
E25  23750724.491    23750730.752    23750730.131    23750724.520    23750726.610        -865.839        -646.544        -702.784        -663.450        -654.996   124810923.324    93203000.924   101307608.045    95634354.669    94418693.374          49.430          52.000          51.120          53.430          55.680
E33  28314799.006    28314804.954    28314807.633    28314798.003    28314800.280        2661.531        1987.801        2160.598        2039.340        2013.370   148795318.169   111113433.056   120775470.311   114012013.787   112562734.490          25.620          31.000          33.750          32.250          34.560
E36  27989226.499    27989236.060    27989234.656    27989229.721    27989232.074       -3299.384       -2463.911       -2678.105       -2528.000       -2495.916   147084382.482   109835772.916   119386709.767   112701030.946   111268413.010          33.180          36.180          31.250          36.870          39.370
G01  23092814.736    23092814.424    23092816.968    23092817.124    23092819.873       -3701.275       -3701.275       -2884.053       -2884.113       -2763.943   121353572.296   121353572.296    94561235.537    94561241.523    90621199.885          42.180          29.370          40.750          29.370          45.310
G07  20350154.551    20350154.131    20350153.142    20350152.659                         221.335         221.335         172.496         172.469                   106940820.083   106940820.083    83330525.089    83330527.078                          49.060          46.250          48.680          46.250
G08  20546447.884    20546447.232    20546449.789    20546448.751    20546451.768        1415.376        1415.376        1102.874        1102.892        1056.959   107972381.862   107972381.862    84134370.761    84134342.754    80628764.914          49.870          55.810          48.870          55.810          53.870
G11  21001549.787    21001549.103                    21001547.381                       -1832.614       -1832.614                       -1428.009                   110363945.763   110363945.763                    85997883.337                          49.430          41.750                          41.750
G13  24294317.186    24294316.824                    24294316.376                       -2070.305       -2070.305                       -1613.224                   127667504.524   127667504.524                    99481157.062                          40.060          24.000                          24.000
G14  22757272.050    22757271.791    22757271.356    22757270.721    22757278.313       -2682.430       -2682.430       -2090.119       -2090.205       -2003.103   119590287.923   119590287.923    93187230.676    93187244.668    89304479.499          44.430          33.560          43.750          33.560          47.810
G21  22005459.253    22005458.136                    22005457.075                       -1770.260       -1770.260                       -1379.422                   115639489.177   115639489.177                    90108707.941                          47.750          37.180                          37.180
G27  22943238.489    22943237.850    22943238.721    22943238.354    22943241.707        3329.535        3329.535        2594.435        2594.442        2486.298   120567595.080   120567595.080    93948821.913    93948818.914    90034294.570          44.060          45.120          43.000          45.120          46.930
G28  23360719.102    23360718.213                    23360717.635                       -2425.778       -2425.778                       -1890.217                   122761416.518   122761416.518                    95658251.418                          42.680          28.500                          28.500
G30  21202695.443    21202694.715    21202696.458    21202695.890    21202699.708       -1775.516       -1775.516       -1383.514       -1383.520       -1325.883   111420943.299   111420943.299    86821535.157    86821524.145    83203980.729          49.930          44.060          47.500          44.060          53.000
R02  23012029.345    23012028.880    23012030.939    23012030.993         797.138         797.155         620.029         619.933   122796585.811   122796609.816    95508484.977    95508482.978          48.180          47.120          39.620          38.810
R09  23831355.566    23831356.233    23831359.617    23831360.203        3588.790        3588.729        2791.226        2791.449   127258144.234   127258142.236    98978582.373    98978581.391          42.180          41.180          40.000          39.560
R10  20114949.230    20114948.756                                        1776.234        1776.245                                   107224038.501   107224042.503                                          51.870          52.000
R11  19889452.744    19889453.052    19889455.026    19889455.008       -1961.371       -1961.401       -1525.547       -1525.521   106283240.745   106283234.741    82664784.579    82664766.584          53.120          53.000          50.870          50.870
R12  23735224.064    23735224.337    23735228.071    23735227.708       -3691.846       -3691.913       -2871.425       -2871.556   126789310.090   126789316.095    98613935.575    98613923.567          44.680          43.810          40.620          40.120
R20  20098950.269    20098950.376    20098956.527    20098955.821        1594.742        1594.564        1240.325        1240.380   107478166.167   107478163.160    83594172.767    83594173.776          43.180          41.930          50.000          50.750
R21  20395867.704    20395867.718    20395872.526    20395872.549       -3091.305       -3091.338       -2404.355       -2404.319   109142858.973   109142441.974    84888850.717    84888610.728          53.000          53.000          50.180          49.620
> 2021 01 03 00 02 30.0000000  0 26
E02  26844965.335    26844971.287    26844973.008    26844963.682    26844966.407       -2355.405       -1758.901       -1911.856       -1804.749       -1781.820   141071266.484   105345447.750   114505940.805   108093565.365   106719514.136          42.180          42.810          42.560          41.750          45.180
E03  26990387.111    26990393.671    26990392.911    26990387.310    26990389.618        2215.496        1654.421        1798.278        1697.554        1675.980   141835431.854   105916128.357   115126230.618   108679136.059   107297644.286          43.430          44.500          40.120          45.370          47.870
E08  25393665.985    25393670.407    25393673.480    25393664.078    25393666.471         109.472          81.781          88.924          83.811          82.806   133444637.009    99650230.538   108315479.436   102249764.382   100950012.539          42.000          41.120          42.250          42.810          44.930
E11  22859796.946    22859800.076    22859800.944    22859793.988    22859796.086       -2307.342       -1723.022       -1872.849       -1767.949       -1745.496   120129080.496    89706803.882    97507393.958    92046951.340    90876891.688          45.310          45.560          45.370          47.060          49.310
