     3.03           OBSERVATION DATA    M (MIXED)           RINEX VERSION / TYPE
RTCM2RINEX 1.2.19   NRCan               20210103 01:29:11UTCPGM / RUN BY / DATE
gfzrnx-1.11-7352    FILE MERGE          20210104 003015 UTC COMMENT
  -417603.6000 -4064529.8000  4881432.1600                  APPROX POSITION XYZ
This data is subject to the Open Government Licence- Canada COMMENT
https://open.canada.ca/en/open-government-licence-canada    COMMENT
DBHZ                                                        SIGNAL STRENGTH UNIT
    18                  GPS                                 LEAP SECONDS
     1     1                                                WAVELENGTH FACT L1/2
E L1C  0.00000                                              SYS / PHASE SHIFT
E L5Q  0.00000                                              SYS / PHASE SHIFT
E L6C  0.00000                                              SYS / PHASE SHIFT
E L7Q  0.00000                                              SYS / PHASE SHIFT
E L8Q  0.00000                                              SYS / PHASE SHIFT
G L1C                                                       SYS / PHASE SHIFT
G L1W  0.00000                                              SYS / PHASE SHIFT
G L2L  0.00000                                              SYS / PHASE SHIFT
G L2W                                                       SYS / PHASE SHIFT
G L5Q  0.00000                                              SYS / PHASE SHIFT
R L1C                                                       SYS / PHASE SHIFT
R L1P  0.00000                                              SYS / PHASE SHIFT
R L2C                                                       SYS / PHASE SHIFT
R L2P  0.00000                                              SYS / PHASE SHIFT
3015989             SEPT POLARX5        5.2.0               REC # / TYPE / VERS
DUBO CACS-GSD 924000 LAC DU BONNET MB Canada                MARKER NAME
        0.1000        0.0000        0.0000                  ANTENNA: DELTA H/E/N
40137M001                                                   MARKER NUMBER
ACSOPS              NRCan                                   OBSERVER / AGENCY
 24 R01  1 R02 -4 R03  5 R04  6 R05  1 R06 -4 R07  5 R08  6 GLONASS SLOT / FRQ #
    R09 -2 R10 -7 R11  0 R12 -1 R13 -2 R14 -7 R15  0 R16 -1 GLONASS SLOT / FRQ #
    R17  4 R18 -3 R19  3 R20  2 R21  4 R22 -3 R23  3 R24  2 GLONASS SLOT / FRQ #
 C1C    0.000 C1P    0.000 C2C    0.000 C2P    0.000        GLONASS COD/PHS/BIS
464                 AOAD/M_T        NONE                    ANT # / TYPE
E   20 C1C C5Q C6C C7Q C8Q D1C D5Q D6C D7Q D8Q L1C L5Q L6C  SYS / # / OBS TYPES
       L7Q L8Q S1C S5Q S6C S7Q S8Q                          SYS / # / OBS TYPES
G   20 C1C C1W C2L C2W C5Q D1C D1W D2L D2W D5Q L1C L1W L2L  SYS / # / OBS TYPES
       L2W L5Q S1C S1W S2L S2W S5Q                          SYS / # / OBS TYPES
R   16 C1C C1P C2C C2P D1C D1P D2C D2P L1C L1P L2C L2P S1C  SYS / # / OBS TYPES
       S1P S2C S2P                                          SYS / # / OBS TYPES
    81                                                      # OF SATELLITES
   E01   946   947   938   947   942   946   947   938   947PRN / # OF OBS
         942   946   947   938   947   942   946   947   938PRN / # OF OBS
         947   942                                          PRN / # OF OBS
   E02  1131  1174  1171  1173  1173  1131  1174  1171  1173PRN / # OF OBS
        1173  1131  1174  1171  1173  1173  1131  1174  1171PRN / # OF OBS
        1173  1173                                          PRN / # OF OBS
   E03   846   873   869   880   881   846   873   869   880PRN / # OF OBS
         881   846   873   869   880   881   846   873   869PRN / # OF OBS
         880   881                                          PRN / # OF OBS
   E04   828   828   828   828   823   828   828   828   828PRN / # OF OBS
         823   828   828   828   828   823   828   828   828PRN / # OF OBS
         828   823                                          PRN / # OF OBS
   E05   692   703   698   703   702   692   703   698   703PRN / # OF OBS
         702   692   703   698   703   702   692   703   698PRN / # OF OBS
         703   702                                          PRN / # OF OBS
   E07  1260  1287  1286  1285  1284  1260  1287  1286  1285PRN / # OF OBS
        1284  1260  1287  1286  1285  1284  1260  1287  1286PRN / # OF OBS
        1285  1284                                          PRN / # OF OBS
   E08  1096  1131  1135  1137  1104  1096  1131  1135  1137PRN / # OF OBS
        1104  1096  1131  1135  1137  1104  1096  1131  1135PRN / # OF OBS
        1137  1104                                          PRN / # OF OBS
   E09   781   774   782   773   708   781   774   782   773PRN / # OF OBS
         708   781   774   782   773   708   781   774   782PRN / # OF OBS
         773   708                                          PRN / # OF OBS
   E11   714   808   812   816   801   714   808   812   816PRN / # OF OBS
         801   714   808   812   816   801   714   808   812PRN / # OF OBS
         816   801                                          PRN / # OF OBS
   E12   713   715   718   722   723   713   715   718   722PRN / # OF OBS
         723   713   715   718   722   723   713   715   718PRN / # OF OBS
         722   723                                          PRN / # OF OBS
   E13  1217  1246  1252  1261  1259  1217  1246  1252  1261PRN / # OF OBS
        1259  1217  1246  1252  1261  1259  1217  1246  1252PRN / # OF OBS
        1261  1259                                          PRN / # OF OBS
   E14   657   657   657   657   657   657   657   657   657PRN / # OF OBS
         657   657   657   657   657   657   657   657   657PRN / # OF OBS
         657   657                                          PRN / # OF OBS
   E15  1200  1205  1206  1203  1203  1200  1205  1206  1203PRN / # OF OBS
        1203  1200  1205  1206  1203  1203  1200  1205  1206PRN / # OF OBS
        1203  1203                                          PRN / # OF OBS
   E18   649   660   660   661   655   649   660   660   661PRN / # OF OBS
         655   649   660   660   661   655   649   660   660PRN / # OF OBS
         661   655                                          PRN / # OF OBS
   E19   909   892   914   918   922   909   892   914   918PRN / # OF OBS
         922   909   892   914   918   922   909   892   914PRN / # OF OBS
         918   922                                          PRN / # OF OBS
   E20   807                           807                  PRN / # OF OBS
               807                           807            PRN / # OF OBS
                                                            PRN / # OF OBS
   E21  1348  1337  1357  1366  1319  1348  1337  1357  1366PRN / # OF OBS
        1319  1348  1337  1357  1366  1319  1348  1337  1357PRN / # OF OBS
        1366  1319                                          PRN / # OF OBS
   E24   282   283   283   283   283   282   283   283   283PRN / # OF OBS
         283   282   283   283   283   283   282   283   283PRN / # OF OBS
         283   283                                          PRN / # OF OBS
   E25   697   730   733   733   730   697   730   733   733PRN / # OF OBS
         730   697   730   733   733   730   697   730   733PRN / # OF OBS
         733   730                                          PRN / # OF OBS
   E26  1010  1012  1012  1019  1007  1010  1012  1012  1019PRN / # OF OBS
        1007  1010  1012  1012  1019  1007  1010  1012  1012PRN / # OF OBS
        1019  1007                                          PRN / # OF OBS
   E27  1343  1356  1389  1385  1359  1343  1356  1389  1385PRN / # OF OBS
        1359  1343  1356  1389  1385  1359  1343  1356  1389PRN / # OF OBS
        1385  1359                                          PRN / # OF OBS
   E30  1386  1382  1395  1402  1372  1386  1382  1395  1402PRN / # OF OBS
        1372  1386  1382  1395  1402  1372  1386  1382  1395PRN / # OF OBS
        1402  1372                                          PRN / # OF OBS
   E31   416   438   449   453   454   416   438   449   453PRN / # OF OBS
         454   416   438   449   453   454   416   438   449PRN / # OF OBS
         453   454                                          PRN / # OF OBS
   E33   709   740   739   741   741   709   740   739   741PRN / # OF OBS
         741   709   740   739   741   741   709   740   739PRN / # OF OBS
         741   741                                          PRN / # OF OBS
   E36   798   824   832   846   823   798   824   832   846PRN / # OF OBS
         823   798   824   832   846   823   798   824   832PRN / # OF OBS
         846   823                                          PRN / # OF OBS
   G01   990   990   987   990   990   990   990   987   990PRN / # OF OBS
         990   990   990   987   990   990   990   990   987PRN / # OF OBS
         990   990                                          PRN / # OF OBS
   G02   771   771         771         771   771         771PRN / # OF OBS
               771   771         771         771   771      PRN / # OF OBS
         771                                                PRN / # OF OBS
   G03   965   965   942   965   963   965   965   942   965PRN / # OF OBS
         963   965   965   942   965   963   965   965   942PRN / # OF OBS
         965   963                                          PRN / # OF OBS
   G04   815   812   813   811   813   815   812   813   811PRN / # OF OBS
         813   815   812   813   811   813   815   812   813PRN / # OF OBS
         811   813                                          PRN / # OF OBS
   G05   864   864   820   864         864   864   820   864PRN / # OF OBS
               864   864   820   864         864   864   820PRN / # OF OBS
         864                                                PRN / # OF OBS
   G06   859   855   835   855   858   859   855   835   855PRN / # OF OBS
         858   856   855   835   855   858   859   855   835PRN / # OF OBS
         855   858                                          PRN / # OF OBS
   G07   735   735   701   735         735   735   701   735PRN / # OF OBS
               735   735   701   735         735   735   701PRN / # OF OBS
         735                                                PRN / # OF OBS
   G08   930   927   924   927   929   930   927   924   927PRN / # OF OBS
         929   930   927   924   927   929   930   927   924PRN / # OF OBS
         927   929                                          PRN / # OF OBS
   G09   927   926   918   926   923   927   926   918   926PRN / # OF OBS
         923   927   926   918   926   923   927   926   918PRN / # OF OBS
         926   923                                          PRN / # OF OBS
   G10   782   782   778   782   782   782   782   778   782PRN / # OF OBS
         782   782   782   778   782   782   782   782   778PRN / # OF OBS
         782   782                                          PRN / # OF OBS
   G11   941   941         941         941   941         941PRN / # OF OBS
               941   941         941         941   941      PRN / # OF OBS
         941                                                PRN / # OF OBS
   G12   976   976   937   976         976   976   937   976PRN / # OF OBS
               976   976   937   976         976   976   937PRN / # OF OBS
         976                                                PRN / # OF OBS
   G13   987   987         987         987   987         987PRN / # OF OBS
               987   987         987         987   987      PRN / # OF OBS
         987                                                PRN / # OF OBS
   G14   772   770   762   770   764   772   770   762   770PRN / # OF OBS
         764   771   770   762   770   764   772   770   762PRN / # OF OBS
         770   764                                          PRN / # OF OBS
   G15   905   905   858   905         905   905   858   905PRN / # OF OBS
               905   905   858   905         905   905   858PRN / # OF OBS
         905                                                PRN / # OF OBS
   G16   913   913         913         913   913         913PRN / # OF OBS
               913   913         913         913   913      PRN / # OF OBS
         913                                                PRN / # OF OBS
   G17   766   765   765   765         766   765   765   765PRN / # OF OBS
               766   765   765   765         766   765   765PRN / # OF OBS
         765                                                PRN / # OF OBS
   G18   774   773   767   773   774   774   773   767   773PRN / # OF OBS
         774   773   773   767   773   774   774   773   767PRN / # OF OBS
         773   774                                          PRN / # OF OBS
   G19   760   760         760         760   760         760PRN / # OF OBS
               760   760         760         760   760      PRN / # OF OBS
         760                                                PRN / # OF OBS
   G20   778   778         778         778   778         778PRN / # OF OBS
               778   778         778         778   778      PRN / # OF OBS
         778                                                PRN / # OF OBS
   G21  1018  1018        1018        1018  1018        1018PRN / # OF OBS
              1018  1018        1018        1018  1018      PRN / # OF OBS
        1018                                                PRN / # OF OBS
   G22   967   967         967         967   967         967PRN / # OF OBS
               967   967         967         967   967      PRN / # OF OBS
         967                                                PRN / # OF OBS
   G23   791   790   787   790   791   791   790   787   790PRN / # OF OBS
         791   790   790   787   790   791   791   790   787PRN / # OF OBS
         790   791                                          PRN / # OF OBS
   G24  1002  1002   997  1002  1002  1002  1002   997  1002PRN / # OF OBS
        1002  1002  1002   997  1002  1002  1002  1002   997PRN / # OF OBS
        1002  1002                                          PRN / # OF OBS
   G25   944   943   938   943   944   944   943   938   943PRN / # OF OBS
         944   944   943   938   943   944   944   943   938PRN / # OF OBS
         943   944                                          PRN / # OF OBS
   G26   930   930   913   930   926   930   930   913   930PRN / # OF OBS
         926   930   930   913   930   926   930   930   913PRN / # OF OBS
         930   926                                          PRN / # OF OBS
   G27  1018  1017  1012  1016  1017  1018  1017  1012  1016PRN / # OF OBS
        1017  1018  1017  1012  1016  1017  1018  1017  1012PRN / # OF OBS
        1016  1017                                          PRN / # OF OBS
   G28   803   803         803         803   803         803PRN / # OF OBS
               803   803         803         803   803      PRN / # OF OBS
         803                                                PRN / # OF OBS
   G29   937   937   900   937         937   937   900   937PRN / # OF OBS
               937   937   900   937         937   937   900PRN / # OF OBS
         937                                                PRN / # OF OBS
   G30   850   848   839   847   850   850   848   839   847PRN / # OF OBS
         850   848   846   839   846   850   850   848   839PRN / # OF OBS
         847   850                                          PRN / # OF OBS
   G31   854   854   795   854         854   854   795   854PRN / # OF OBS
               854   854   795   854         854   854   795PRN / # OF OBS
         854                                                PRN / # OF OBS
   G32   780   780   772   780   780   780   780   772   780PRN / # OF OBS
         780   780   780   772   780   780   780   780   772PRN / # OF OBS
         780   780                                          PRN / # OF OBS
   R01  1034  1045  1015  1007  1034  1045  1015  1007  1032PRN / # OF OBS
        1031  1015  1006  1034  1045  1015  1007            PRN / # OF OBS
   R02  1118  1117  1103  1093  1118  1117  1103  1093  1118PRN / # OF OBS
        1115  1102  1090  1118  1117  1103  1093            PRN / # OF OBS
   R03  1085  1089  1080  1084  1085  1089  1080  1084  1084PRN / # OF OBS
        1083  1077  1077  1085  1089  1080  1084            PRN / # OF OBS
   R04   900   900   875   879   900   900   875   879   889PRN / # OF OBS
         882   870   862   900   900   875   879            PRN / # OF OBS
   R05   906   904   896   890   906   904   896   890   900PRN / # OF OBS
         894   895   888   906   904   896   890            PRN / # OF OBS
   R06   894   906               894   906               893PRN / # OF OBS
         888               894   906                        PRN / # OF OBS
   R07   975   979   984   978   975   979   984   978   974PRN / # OF OBS
         972   976   972   975   979   984   978            PRN / # OF OBS
   R08  1017  1018   999   996  1017  1018   999   996  1017PRN / # OF OBS
        1016   999   993  1017  1018   999   996            PRN / # OF OBS
   R09   888   888   881   879   888   888   881   879   884PRN / # OF OBS
         883   877   874   888   888   881   879            PRN / # OF OBS
   R10  1052  1043              1052  1043              1051PRN / # OF OBS
        1038              1052  1043                        PRN / # OF OBS
   R11  1119  1119  1108  1099  1119  1119  1108  1099  1112PRN / # OF OBS
        1110  1106  1099  1119  1119  1108  1099            PRN / # OF OBS
   R12  1150  1150  1126  1123  1150  1150  1126  1123  1141PRN / # OF OBS
        1138  1123  1112  1150  1150  1126  1123            PRN / # OF OBS
   R13   942   938   922   929   942   938   922   929   941PRN / # OF OBS
         929   922   911   942   938   922   929            PRN / # OF OBS
   R14   938   937   937   935   938   937   937   935   938PRN / # OF OBS
         937   937   935   938   937   937   935            PRN / # OF OBS
   R15   952   953   940   940   952   953   940   940   952PRN / # OF OBS
         953   940   940   952   953   940   940            PRN / # OF OBS
   R16   887   888   878   871   887   888   878   871   887PRN / # OF OBS
         887   875   867   887   888   878   871            PRN / # OF OBS
   R17   904   901   885   880   904   901   885   880   895PRN / # OF OBS
         891   883   874   904   901   885   880            PRN / # OF OBS
   R18   892   892   885   876   892   892   885   876   882PRN / # OF OBS
         881   883   875   892   892   885   876            PRN / # OF OBS
   R19   844   847   879   866   844   847   879   866   844PRN / # OF OBS
         844   870   857   844   847   879   866            PRN / # OF OBS
   R20  1052  1057  1135  1088  1052  1057  1135  1088  1052PRN / # OF OBS
        1050  1126  1079  1052  1057  1135  1088            PRN / # OF OBS
   R21  1157  1156  1147  1145  1157  1156  1147  1145  1156PRN / # OF OBS
        1155  1147  1143  1157  1156  1147  1145            PRN / # OF OBS
   R22  1088  1097   809   784  1088  1097   809   784  1081PRN / # OF OBS
        1080   809   739  1088  1097   809   784            PRN / # OF OBS
   R23   970   968               970   968               970PRN / # OF OBS
         967               970   968                        PRN / # OF OBS
   R24   918   919   913   911   918   919   913   911   914PRN / # OF OBS
         913   911   903   918   919   913   911            PRN / # OF OBS
    30.000                                                  INTERVAL
  2021     1     3     0     0    0.0000000     GPS         TIME OF FIRST OBS
  2021     1     3    23    59   30.0000000     GPS         TIME OF LAST OBS
                                                            END OF HEADER
> 2021 01 03 00 00 00.0000000  0 25
E02  25645558.225    25645562.437    25645562.706    25645557.641    25645559.042       -2151.938       -1606.897       -1746.727       -1648.871       -1627.883   134768343.508   100638736.067   109389913.220   103264075.361   101951411.290          44.560          45.500          46.620          46.930          49.250
E03  25987046.721    25987052.441    25987049.342    25987046.482    25987048.670        2349.523        1754.414        1906.978        1800.289        1777.352   136562893.637   101978812.446   110846527.860   104639106.327   103308970.963          43.120          45.310          44.500          45.680          48.430
E08  24128164.435    24128167.610    24128169.896    24128162.837    24128164.439        -126.325         -94.306        -102.586         -96.802         -95.545   126794388.576    94684132.624   102917555.886    97154137.991    95919144.384          44.180          44.000          45.680          45.560          47.810
E11  23900447.250    23900449.280    23900449.128    23900444.605    23900446.109       -2587.919       -1932.590       -2100.689       -1982.939       -1957.765   125597723.119    93790537.610   101946216.221    96237217.268    95013873.514          40.750          41.680          42.680          42.930          45.370
E12  24001349.918    24001350.750    24001350.066    24001346.701    24001347.784           7.434           5.525           5.972           5.636           5.572   126127960.853    94186507.000   102376609.657    96643516.046    95415026.599          42.500          42.500          43.560          44.560          46.620
E24  25614698.586    25614702.039    25614701.989    25614697.461    25614698.518        2069.569        1545.386        1679.786        1585.773        1565.572   134606202.123   100517647.688   109258306.113   103139830.777   101828738.309          45.680          46.500          47.060          48.250          50.430
E25  23447678.258    23447683.244    23447680.865    23447678.412    23447679.951        -155.147        -115.841        -125.917        -118.832        -117.343   123218429.024    92013809.085   100014999.978    94414141.698    93213982.968          48.370          52.000          53.060          53.370          55.680
E33  28389261.015    28389264.463    28389265.295    28389259.716    28389261.166        2327.116        1737.869        1888.961        1783.217        1760.570   149186587.510   111405585.613   121093095.721   114311822.939   112858714.355          35.680          36.500          38.430          36.430          39.370
G07  20464802.684    20464802.264    20464800.413    20464800.332                         904.408         904.408         704.686         704.734                   107543303.688   107543303.688    83800006.069    83799990.060                          49.870          44.560          47.620          44.560
G08  20987132.306    20987131.672    20987133.504    20987132.757    20987134.536        1477.748        1477.748        1151.519        1151.494        1103.526   110288175.106   110288175.106    85938858.284    85938844.278    82358110.124          50.370          53.680          47.250          53.680          52.250
G09  24708000.863    24708000.448    24708003.023    24708001.162    24708003.205        3799.056        3799.056        2960.257        2960.322        2836.861   129841436.123   129841436.123   101175163.560   101175158.566    96959539.503          33.310           9.060          30.060           9.060          34.180
G11  21875380.593    21875379.909                    21875377.056                       -2081.509       -2081.509                       -1621.956                   114955929.939   114955929.939                    89576051.778                          48.930          35.750                          35.750
G13  23178555.536    23178555.094                    23178553.063                       -2293.920       -2293.920                       -1787.474                   121804140.518   121804140.518                    94912301.306                          42.250          24.680                          24.680
G14  21737443.284    21737442.963    21737442.443    21737441.884    21737449.046       -2388.701       -2388.701       -1861.405       -1861.326       -1783.793   114231062.532   114231062.532    89011234.951    89011242.947    85302457.255          46.870          36.810          45.180          36.810          49.560
G21  23205555.181    23205554.041                    23205553.593                       -2055.604       -2055.604                       -1601.779                   121946040.702   121946040.702                    95022890.266                          41.500          26.060                          26.060
G27  23475526.129    23475525.491    23475527.185    23475527.180    23475528.141        3433.626        3433.626        2675.603        2675.551        2564.077   123364795.105   123364795.105    96128431.089    96128430.086    92123118.171          42.930          41.680          41.180          41.680          44.180
G28  22270054.375    22270053.405                    22270052.242                       -2265.437       -2265.437                       -1765.274                   117029970.901   117029970.901                    91192185.737                          45.680          32.680                          32.680
G30  20588144.432    20588143.735    20588144.713    20588144.159    20588146.930       -1102.786       -1102.786        -859.288        -859.314        -823.540   108191480.548   108191480.548    84305063.662    84305064.658    80792367.164          51.430          45.250          48.500          45.250          54.000
R01  23156616.071    23156615.499    23156620.966    23156621.323        3914.900        3914.795        3044.993        3045.210   123785393.695   123785436.720    96277586.672    96277551.698          39.120          38.430          35.250          35.000
R02  21767467.999    21767468.406    21767472.401    21767472.213         271.573         271.578         211.161         211.270   116155412.435   116155482.452    90343106.475    90343122.472          49.250          48.870          45.000          44.810
R10  20978314.437    20978314.008                                        2563.679        2563.600                                   111826293.089   111826276.094                                          49.680          49.370
R11  19470363.944    19470364.356    19470365.443    19470365.497        -886.677        -886.695        -689.608        -689.594   104043773.313   104043775.319    80923064.125    80922960.130          53.000          53.060          50.750          50.750
R12  22476540.502    22476541.348    22476546.025    22476546.244       -3360.259       -3360.327       -2613.640       -2613.462   120065673.154   120065663.165    93384438.416    93384437.427          45.180          45.750          43.250          43.180
R20  20589215.287    20589215.006    20589219.427    20589218.855         909.170         909.306         707.223         707.159   110099807.862   110099815.886    85633246.748    85633232.747          42.370          41.430          47.180          48.120
R21  21087932.717    21087933.410    21087936.304    21087936.662       -3530.819       -3530.857       -2746.235       -2746.188   112845822.334   112845823.334    87768999.304    87768996.306          49.810          50.310          47.120          47.120
> 2021 01 03 00 00 30.0000000  0 26
E02  25633283.500    25633287.216    25633288.258    25633282.456    25633283.995       -2148.528       -1604.401       -1743.984       -1646.283       -1625.335   134703838.812   100590566.988   109337555.504   103214649.678   101902613.910          44.500          45.180          46.560          46.680          48.930
E03  26000484.966    26000490.046    26000487.641    26000484.973    26000486.696        2358.228        1761.018        1914.197        1806.964        1784.006   136633510.278   102031545.645   110903846.569   104693215.183   103362391.992          43.620          44.810          44.500          46.250          48.560
E08  24127485.921    24127489.900    24127491.421    24127484.801    24127486.058        -111.470         -83.278         -90.452         -85.443         -84.359   126790823.602    94681470.489   102914662.260    97151406.415    95916447.529          43.620          44.120          45.430          45.930          48.060
E11  23885699.052    23885700.344    23885699.123    23885695.619    23885696.927       -2579.327       -1926.032       -2093.565       -1976.290       -1951.177   125520216.134    93732659.045   101883304.723    96177828.813    94955240.004          41.060          41.560          42.120          42.870          45.250
E12  24001435.769    24001437.245    24001436.485    24001433.271    24001434.194          22.785          16.975          18.481          17.535          17.266   126128414.727    94186845.938   102376978.063    96643863.829    95415369.960          42.000          42.560          43.620          44.750          46.680
E24  25626524.069    25626527.937    25626527.553    25626523.084    25626524.243        2073.303        1548.260        1682.926        1588.641        1568.452   134668346.743   100564054.384   109308748.174   103187448.074   101875750.306          45.310          46.500          46.620          48.180          50.310
E25  23446813.643    23446818.557    23446816.036    23446813.725    23446815.099        -147.982        -110.549        -120.139        -113.391        -111.965   123213884.304    92010415.305   100011311.084    94410659.383    93210544.921          48.680          51.810          53.000          53.370          55.620
E33  28402573.594    28402578.370    28402577.727    28402571.915    28402573.777        2336.312        1744.753        1896.576        1790.335        1767.562   149256545.382   111457826.859   121149879.690   114365427.028   112911637.023          33.560          36.180          38.000          36.250          39.060
G07  20470011.597    20470011.186    20470009.768    20470009.531                         920.468         920.468         717.221         717.246                   107570677.987   107570677.987    83821336.698    83821320.694                          49.120          44.370          47.620          44.370
G08  20995619.204    20995618.565    20995620.371    20995619.861    20995621.658        1495.417        1495.417        1165.292        1165.261        1116.727   110332774.886   110332774.886    85973611.363    85973597.353    82391415.162          50.120          53.500          47.000          53.500          52.370
G09  24729690.026    24729689.678    24729693.469    24729691.510    24729693.700        3799.767        3799.767        2961.113        2960.855        2837.504   129955421.082   129955421.082   101263982.955   101263977.971    97044658.112          32.000           7.870          30.180           7.870          34.180
G11  21863543.851    21863543.158                    21863541.378                       -2065.151       -2065.151                       -1609.208                   114893732.287   114893732.287                    89527586.101                          47.560          35.620                          35.620
G13  23165507.789    23165507.316                    23165504.931                       -2277.740       -2277.740                       -1774.863                   121735568.091   121735568.091                    94858868.276                          43.620          26.060                          26.060
G14  21723831.991    21723831.683    21723831.155    21723830.788    21723837.678       -2379.935       -2379.935       -1854.414       -1854.496       -1777.211   114159534.345   114159534.345    88955498.718    88955506.711    85249043.358          47.000          37.120          45.620          37.120          49.810
G21  23193857.296    23193856.178                    23193854.527                       -2043.195       -2043.195                       -1592.091                   121884561.394   121884561.394                    94974984.350                          43.430          26.870                          26.870
G27  23495152.278    23495151.652    23495153.212    23495153.181    23495154.414        3441.948        3441.948        2682.045        2682.038        2570.242   123467929.541   123467929.541    96208795.570    96208794.572    92200134.138          43.310          41.870          41.430          41.870          44.560
G28  22257142.972    22257141.998                    22257140.798                       -2258.036       -2258.036                       -1759.504                   116962120.941   116962120.941                    91139315.643                          45.250          32.310                          32.310
G30  20581892.714    20581892.012    20581892.853    20581892.379    20581895.047       -1087.633       -1087.633        -847.486        -847.507        -812.177   108158626.361   108158626.361    84279463.007    84279463.996    80767833.200          51.620          45.370          48.620          45.370          54.180
R01  23178608.155    23178609.988    23178614.377    23178615.996        3922.626        3922.709        3050.977        3051.007   123902959.307   123903002.342    96369026.561    96368991.565          41.500          41.000          35.250          35.000
R02  21769071.170    21769071.228    21769074.883    21769074.678         298.575         298.611         232.262         232.177   116163967.350   116164037.364    90349760.284    90349776.282          48.930          48.250          44.060          44.060
R03                  23923020.165                                                       -2907.423                                                                                                                          31.120
R10  20992771.627    20992771.493                                        2573.825        2573.884                                   111903357.320   111903340.321                                          49.680          49.680
R11  19465425.891    19465426.137    19465427.064    19465427.041        -872.667        -872.652        -678.789        -678.794   104017384.673   104017386.679    80902539.620    80902435.631          53.120          53.120          50.750          50.560
R12  22457679.637    22457679.543    22457683.679    22457683.831       -3357.202       -3357.210       -2611.145       -2611.143   119964913.186   119964903.179    93306069.573    93306068.570          45.810          45.810          43.750          43.560
R20  20594395.054    20594394.987    20594399.981    20594399.489         937.249         937.368         729.013         728.983   110127508.532   110127516.548    85654791.711    85654777.712          42.060          40.810          47.930          48.620
R21  21068188.138    21068188.348    21068191.081    21068191.001       -3513.331       -3513.327       -2732.565       -2732.605   112740160.025   112740161.030    87686817.567    87686814.573          51.250          51.120          47.120          47.060
> 2021 01 03 00 01 00.0000000  0 26
E02  25621027.467    25621031.599    25621032.342    25621027.348    25621028.467       -2145.157       -1601.950       -1741.183       -1643.725       -1622.829   134639435.813   100542473.862   109285280.366   103165301.948   101853893.482          44.060          44.750          46.620          47.120          49.000
E03  26013973.160    26013978.343    26013976.188    26013973.811    26013974.863        2367.002        1767.615        1921.242        1813.678        1790.653   136704391.949   102084476.757   110961380.356   104747527.079   103416013.495          43.120          44.430          45.060          46.870          48.750
E08  24126892.349    24126896.418    24126898.296    24126891.743    24126892.786         -96.586         -72.067         -78.461         -74.026         -73.056   126787705.622    94679142.141   102912131.436    97149017.328    95914088.810          43.370          43.870          45.750          46.250          48.120
E11  23870998.418    23871000.766    23870999.094    23870995.568    23870996.767       -2570.889       -1919.747       -2086.778       -1969.850       -1944.792   125442966.750    93674972.846   101820602.303    96118637.749    94896801.375          40.620          41.560          42.250          43.000          45.250
E12  24001610.251    24001612.152    24001611.647    24001607.960    24001609.021          38.273          28.588          31.076          29.328          28.962   126129333.025    94187531.694   102377723.445    96644567.472    95416064.658          41.500          42.810          43.870          44.620          46.750
E24  25638371.092    25638374.754    25638374.965    25638369.659    25638371.319        2077.008        1550.990        1685.851        1591.421        1571.202   134730603.621   100610544.897   109359281.355   103235151.386   101922847.219          45.180          46.310          46.620          47.810          50.060
E25  23445989.143    23445994.097    23445991.791    23445989.395    23445990.720        -140.970        -105.271        -114.444        -108.041        -106.652   123209552.129    92007180.247   100007794.709    94407339.928    93207267.664          48.680          51.750          53.180          53.560          55.680
E33  28415939.131    28415945.002    28415944.104    28415939.030    28415939.783        2345.884        1751.906        1904.037        1797.613        1774.751   149326784.351   111510277.989   121206891.767   114419246.444   112964772.296          32.000          35.370          38.060          37.120          39.180
G07  20475312.048    20475311.629    20475309.906    20475310.013                         936.339         936.339         729.643         729.614                   107598532.539   107598532.539    83843041.540    83843025.533                          49.310          44.310          47.310          44.310
G08  21004206.794    21004206.160    21004207.921    21004207.192    21004209.458        1512.993        1512.993        1178.972        1178.956        1129.831   110377903.772   110377903.772    86008776.733    86008762.730    82425115.312          49.870          53.430          46.680          53.430          52.560
G09  24751384.085    24751384.068    24751387.277    24751384.545    24751388.180        3799.946        3799.946        2961.116        2960.923        2837.725   130069418.488   130069418.488   101352812.077   101352807.060    97129785.990          33.060           8.680          29.750           8.680          34.250
G11  21851801.969    21851801.285                    21851799.434                       -2048.776       -2048.776                       -1596.444                   114832025.609   114832025.609                    89479503.007                          48.370          35.750                          35.750
G13  23152550.153    23152549.662                    23152548.905                       -2261.605       -2261.605                       -1762.281                   121667481.058   121667481.058                    94805813.500                          42.430          25.120                          25.120
G14  21710271.474    21710271.157    21710269.823    21710269.672    21710276.656       -2371.140       -2371.140       -1847.650       -1847.642       -1770.686   114088271.321   114088271.321    88899969.105    88899977.099    85195827.478          48.120          37.370          45.000          37.370          49.930
G21  23182228.828    23182227.702                    23182225.992                       -2030.686       -2030.686                       -1582.352                   121823455.059   121823455.059                    94927369.048                          42.810          26.680                          26.680
G27  23514825.673    23514825.061    23514826.022    23514825.570    23514827.085        3449.970        3449.970        2688.288        2688.289        2576.274   123571310.025   123571310.025    96289351.810    96289350.809    92277333.869          44.180          42.250          41.620          42.250          44.500
G28  22244274.809    22244273.844                    22244272.488                       -2250.605       -2250.605                       -1753.718                   116894494.450   116894494.450                    91086619.705                          46.370          33.000                          33.000
G30  20575726.960    20575726.245    20575727.402    20575726.843    20575729.753       -1072.416       -1072.416        -835.639        -835.648        -800.840   108126228.093   108126228.093    84254217.608    84254218.599    80743639.698          51.000          45.250          48.370          45.250          54.250
R01  23200645.183    23200645.049    23200651.441    23200651.213        3930.289        3930.366        3056.885        3057.034   124020756.329   124020799.336    96460646.487    96460611.499          40.250          39.430          33.180          33.560
R02  21770826.724    21770826.881    21770830.523    21770830.165         325.445         325.461         253.165         253.201   116173331.275   116173401.283    90357043.327    90357059.324          49.180          48.810          44.810          43.930
R03  23906771.983    23906772.846                                       -2889.788       -2889.587                                   127974829.291   127974851.313                                          31.430          29.810
R10  21007285.919    21007285.472                                        2583.977        2583.938                                   111980726.716   111980709.713                                          49.680          49.620
R11  19460565.752    19460565.895    19460567.381    19460567.497        -858.823        -858.759        -667.958        -667.954   103991414.462   103991416.466    80882340.575    80882236.583          52.680          52.870          51.060          51.060
R12  22438834.587    22438834.797    22438837.967    22438838.209       -3354.101       -3354.150       -2608.821       -2608.713   119864245.632   119864235.635    93227772.603    93227771.623          46.870          45.750          43.120          43.500
R20  20599732.110    20599732.177    20599737.399    20599736.849         965.194         965.208         750.762         750.750   110156049.567   110156057.583    85676990.307    85676976.308          42.120          40.810          47.750          48.560
R21  21048541.036    21048541.787    21048543.904    21048543.962       -3495.744       -3495.715       -2718.895       -2718.897   112635025.948   112635026.958    87605046.658    87605043.659          51.370          51.500          46.500          46.810
> 2021 01 03 00 01 30.0000000  0 26
E02  25608791.820    25608795.442    25608795.885    25608790.766    25608792.453       -2141.570       -1599.286       -1738.306       -1640.977       -1620.113   134575134.756   100494456.835   109233087.944   103116032.309   101805250.149          44.500          44.680          46.500          46.930          48.870
E03  26027511.708    26027516.587    26027514.571    26027511.675    26027513.161        2375.922        1774.255        1928.519        1820.487        1797.357   136775536.739   102137604.349   111019127.759   104802040.605   103469834.052          43.870          44.180          44.810          46.180          48.250
E08  24126384.135    24126387.905    24126390.029    24126383.194    24126384.590         -81.424         -60.889         -66.234         -62.477         -61.674   126785034.601    94677147.534   102909963.400    97146970.700    95912068.193          43.560          43.870          45.870          45.870          47.930
E11  23856347.778    23856349.302    23856348.690    23856344.605    23856345.974       -2561.937       -1913.181       -2079.533       -1963.060       -1938.125   125365976.847    93617480.405   101758110.519    96059645.499    94838559.029          40.680          40.750          42.870          42.680          44.750
E12  24001873.898    24001875.566    24001874.055    24001870.793    24001872.046          53.885          40.120          43.748          41.299          40.727   126130715.608    94188564.126   102378845.663    96645626.847    95417110.564          41.930          43.250          43.060          44.430          46.810
E24  25650239.458    25650243.268    25650243.675    25650238.029    25650239.779        2080.801        1553.928        1689.047        1594.491        1574.212   134792972.292   100657118.914   109409905.294   103282940.387   101970028.727          45.310          46.180          47.370          47.750          50.000
E25  23445205.218    23445210.213    23445208.063    23445205.609    23445206.755        -133.698         -99.850        -108.517        -102.474        -101.156   123205432.440    92004103.858   100004450.804    94404183.285    93204151.148          48.680          51.750          53.370          53.560          55.680
E33  28429359.771    28429363.456    28429363.220    28429357.632    28429358.756        2354.979        1758.883        1911.720        1804.698        1781.773   149397302.375   111562937.573   121264130.427   114473279.740   113018118.731          34.000          34.370          37.250          36.310          38.310
G07  20480704.061    20480703.640    20480701.802    20480701.583                         952.606         952.606         742.290         742.288                   107626867.297   107626867.297    83865120.572    83865104.563                          49.370          44.310          47.120          44.310
G08  21012894.611    21012893.982    21012896.431    21012895.340    21012897.285        1530.662        1530.662        1192.706        1192.726        1143.042   110423559.400   110423559.400    86044352.550    86044338.547    82459208.801          49.680          53.620          47.430          53.620          52.500
G09  24773078.408    24773078.345    24773081.479    24773079.216    24773081.898        3800.266        3800.266        2961.222        2961.253        2837.949   130183425.647   130183425.647   101441648.744   101441643.766    97214921.133          31.620           8.180          30.680           8.180          32.310
G11  21840153.348    21840152.655                    21840150.526                       -2032.129       -2032.129                       -1583.478                   114770812.247   114770812.247                    89431804.281                          48.060          35.810                          35.810
G13  23139686.458    23139686.011                    23139684.056                       -2245.095       -2245.095                       -1749.428                   121599881.737   121599881.737                    94753138.686                          42.560          25.370                          25.370
G14  21696760.989    21696760.682    21696759.612    21696759.196    21696766.408       -2362.073       -2362.073       -1840.582       -1840.576       -1763.885   114017274.171   114017274.171    88844646.656    88844654.657    85142810.141          47.430          37.500          45.370          37.500          50.180
G21  23170671.374    23170670.251                    23170669.598                       -2018.053       -2018.053                       -1572.513                   121762724.014   121762724.014                    94880046.188                          42.430          26.310                          26.310
G27  23534544.183    23534543.580    23534544.822    23534544.281    23534545.107        3458.168        3458.168        2694.694        2694.677        2582.510   123674933.763   123674933.763    96370097.591    96370096.580    92354715.246          43.500          42.000          40.810          42.000          43.930
G28  22231448.394    22231447.438                    22231445.988                       -2242.949       -2242.949                       -1747.755                   116827091.989   116827091.989                    91034098.320                          46.310          32.680                          32.680
G30  20569648.450    20569647.741    20569649.622    20569648.942    20569651.490       -1057.035       -1057.035        -823.638        -823.665        -789.314   108094287.215   108094287.215    84229328.609    84229329.601    80719787.747          50.430          45.120          49.000          45.120          54.310
R01  23222723.452    23222724.334    23222728.360    23222729.608        3937.929        3937.735        3062.996        3062.507   124138779.923   124138822.928    96552442.608    96552407.598          40.060          38.810          33.680          33.750
R02  21772732.360    21772732.602    21772735.801    21772735.980         352.599         352.616         274.228         274.187   116183503.665   116183573.676    90364955.193    90364971.186          49.000          48.810          43.870          43.750
R03  23890632.998    23890635.624                                       -2871.340       -2871.144                                   127888418.746   127888440.778                                          34.250          33.250
R10  21021857.256    21021857.028                                        2594.205        2594.258                                   112058399.906   112058382.923                                          49.870          49.430
R11  19455784.514    19455784.733    19455785.763    19455785.759        -844.600        -844.614        -656.951        -656.937   103965863.685   103965865.682    80862467.757    80862363.765          52.930          53.180          50.810          50.810
R12  22420005.421    22420005.734    22420010.715    22420010.898       -3350.838       -3350.824       -2606.134       -2606.156   119763671.933   119763661.951    93149548.681    93149547.690          45.810          45.560          43.810          43.680
R20  20605226.514    20605226.523    20605231.140    20605230.599         993.397         993.371         772.552         772.612   110185428.955   110185436.957    85699840.928    85699826.932          42.120          40.870          47.310          48.180
R21  21028993.794    21028993.937    21028996.836    21028996.979       -3477.731       -3477.694       -2704.918       -2704.851   112530424.236   112530425.243    87523689.796    87523686.796          51.000          51.370          47.060          47.180
> 2021 01 03 00 02 00.0000000  0 26
E02  25596576.098    25596579.112    25596579.215    25596574.217    25596575.802       -2138.554       -1596.937       -1735.860       -1638.663       -1617.806   134510936.003   100446516.230   109180978.602   103066841.074   101756684.229          45.310          45.370          46.430          47.060          49.250
E03  26041099.762    26041104.529    26041103.206    26041099.563    26041101.406        2384.256        1780.379        1935.205        1826.884        1803.642   136846942.968   102190927.175   111077087.371   104856754.477   103523852.403          43.560          44.500          44.750          46.000          48.250
E08  24125961.393    24125964.572    24125966.678    24125960.317    24125961.378         -66.938         -49.996         -54.295         -51.336         -50.664   126782810.696    94675486.826   102908158.292    97145266.658    95910385.818          43.750          44.250          45.810          46.370          48.370
E11  23841746.365    23841748.046    23841747.876    23841743.711    23841745.174       -2553.585       -1906.829       -2072.761       -1956.540       -1931.662   125289248.409    93560183.237   101695830.982    96000853.633    94780514.512          39.810          40.870          42.750          43.120          45.120
E12  24002224.604    24002226.835    24002224.881    24002222.298    24002223.471          69.032          51.593          56.004          52.857          52.216   126132562.512    94189943.336   102380344.780    96647042.022    95418507.755          41.000          43.620          42.500          44.620          47.120
E24  25662129.449    25662132.450    25662132.892    25662127.886    25662129.363        2084.215        1556.424        1691.745        1597.047        1576.731   134855452.613   100703776.305   109460619.838   103330814.920   102017294.688          45.180          46.060          46.870          48.060          50.060
E25  23444462.030    23444466.623    23444464.642    23444462.117    23444463.268        -126.962         -94.784        -103.097         -97.269         -96.022   123201525.395    92001186.271   100001279.510    94401189.587    93201195.506          48.870          52.000          53.250          53.870          55.930
E33  28442830.150    28442833.388    28442832.351    28442828.851    28442830.632        2364.306        1765.340        1918.817        1811.580        1788.556   149468097.923   111615804.358   121321594.290   114527525.631   113071675.074          32.930          33.680          34.370          34.930          37.310
G07  20486187.625    20486187.205    20486185.442    20486185.093                         968.233         968.233         754.447         754.467                   107655682.318   107655682.318    83887573.838    83887557.832                          49.750          44.500          47.430          44.500
G08  21021682.499    21021681.869    21021684.422    21021683.344    21021685.105        1547.753        1547.753        1206.036        1206.041        1155.830   110469740.015   110469740.015    86080337.456    86080323.450    82493694.334          49.870          53.560          47.310          53.560          52.370
G09  24794774.447    24794774.376    24794778.109    24794775.372    24794777.402        3800.555        3800.555        2961.346        2961.386        2837.857   130297439.867   130297439.867   101530490.986   101530485.976    97300061.626          30.060           5.560          30.870           5.560          31.430
G11  21828599.087    21828598.403                    21828596.059                       -2015.918       -2015.918                       -1570.845                   114710094.455   114710094.455                    89384491.731                          48.180          35.560                          35.560
G13  23126917.037    23126916.614                    23126912.852                       -2229.059       -2229.059                       -1736.923                   121532772.430   121532772.430                    94700845.718                          44.310          25.930                          25.930
G14  21683300.762    21683300.449    21683300.323    21683299.907    21683306.833       -2353.523       -2353.523       -1833.871       -1833.912       -1757.499   113946543.761   113946543.761    88789532.089    88789540.075    85089992.007          46.810          37.310          45.430          37.310          50.060
G21  23159186.266    23159185.140                    23159184.786                       -2005.861       -2005.861                       -1563.000                   121702370.569   121702370.569                    94833017.571                          42.250          26.370                          26.370
G27  23554308.535    23554307.955    23554308.513    23554308.151    23554309.988        3465.932        3465.932        2700.613        2700.724        2588.179   123778798.081   123778798.081    96451030.824    96451029.815    92432276.273          42.430          40.430          39.250          40.430          43.870
G28  22218665.044    22218664.097                    22218661.887                       -2235.791       -2235.791                       -1742.175                   116759914.018   116759914.018                    90981751.860                          46.930          33.000                          33.000
G30  20563657.827    20563657.121    20563658.868    20563658.327    20563660.643       -1042.030       -1042.030        -811.947        -811.973        -778.134   108062805.258   108062805.258    84204797.225    84204798.215    80696278.503          50.930          45.370          48.810          45.370          54.120
R01  23244844.789    23244845.053    23244847.715    23244849.866        3944.942        3944.980        3068.310        3068.267   124257025.699   124257068.711    96644411.474    96644376.478          41.060          40.310          34.060          34.560
R02  21774789.790    21774790.058    21774793.132    21774793.494         379.215         379.204         295.003         295.007   116194483.083   116194553.090    90373494.728    90373510.729          48.750          48.370          43.620          43.680
R03                  23874586.339                                                       -2853.481                                                                                                                          24.750
R10  21036485.266    21036484.895                                        2603.937        2603.992                                   112136376.850   112136359.852                                          49.500          49.060
R11  19451081.310    19451081.463    19451083.355    19451083.498        -830.905        -830.945        -646.321        -646.256   103940733.572   103940735.577    80842922.123    80842818.133          52.810          52.810          51.120          51.000
R12  22401196.752    22401197.204    22401200.455    22401200.611       -3348.102       -3348.017       -2603.990       -2603.877   119663193.442   119663183.462    93071398.776    93071397.777          47.250          46.870          43.810          43.930
R20  20610876.592    20610876.534    20610881.948    20610881.568        1020.880        1020.825         793.940         794.019   110215645.842   110215653.845    85723342.957    85723328.963          41.500          40.500          47.560          48.500
R21  21009546.287    21009546.578    21009549.280    21009549.812       -3460.131       -3460.138       -2691.252       -2691.190   112426358.944   112426359.954    87442750.129    87442747.139          50.750          51.120          47.250          47.180
> 2021 01 03 00 02 30.0000000  0 26
E02  25584377.784    25584382.497    25584382.230    25584377.599    25584378.723       -2134.857       -1594.152       -1732.750       -1635.789       -1614.969   134446839.969   100398652.330   109128952.612   103017728.551   101708196.017          44.870          45.810          46.430          47.250          49.500
E03  26054737.500    26054742.093    26054740.921    26054737.561    26054739.055        2393.084        1787.119        1942.473        1833.761        1810.449   136918608.908   102244443.938   111135257.768   104911667.330   103578067.211          44.250          44.370          45.250          46.120          48.310
E08  24125623.790    24125626.656    24125629.053    24125621.721    24125623.332         -51.762         -38.688         -42.010         -39.726         -39.212   126781034.034    94674160.096   102906716.195    97143905.328    95909041.789          44.370          44.500          46.120          45.870          48.180
E11  23827195.808    23827197.243    23827197.029    23827192.545    23827194.429       -2544.565       -1900.072       -2065.438       -1949.674       -1924.882   125212783.436    93503082.816   101633765.310    95942263.629    94722669.298          40.500          41.500          42.750          42.810          45.180
