     3.04           OBSERVATION DATA    M                   RINEX VERSION / TYPE
JPS2RIN v.2.0.191   JAVAD GNSS          20210104 000720 UTC PGM / RUN BY / DATE
GGN                 JPL                                     OBSERVER / AGENCY
GOLD                                                        MARKER NAME
40405S031                                                   MARKER NUMBER
01538               JAVAD TRE_G3TH DELTA3.7.9               REC # / TYPE / VERS
 -2353614.3160 -4641385.3523  3676976.4340                  APPROX POSITION XYZ
401-B               AOAD/M_T        NONE                    ANT # / TYPE
        0.0254        0.0000        0.0000                  ANTENNA: DELTA H/E/N
G   18 C1C L1C S1C C1W L1W S1W C2X L2X S2X C2W L2W S2W C5X  SYS / # / OBS TYPES
       L5X S5X C1X L1X S1X                                  SYS / # / OBS TYPES
R   15 C1C L1C S1C C1P L1P S1P C2C L2C S2C C2P L2P S2P C3X  SYS / # / OBS TYPES
       L3X S3X                                              SYS / # / OBS TYPES
E    9 C1X L1X S1X C7X L7X S7X C5X L5X S5X                  SYS / # / OBS TYPES
J    9 C1C L1C S1C C2X L2X S2X C5X L5X S5X                  SYS / # / OBS TYPES
C    9 C2I L2I S2I C7Z C7I L7Z L7I S7Z S7I                  SYS / # / OBS TYPES
 24 R01  1 R02 -4 R03  5 R04  6 R05  1 R06 -4 R07  5 R08  6 GLONASS SLOT / FRQ #
    R09 -2 R10 -7 R11  0 R12 -1 R13 -2 R14 -7 R15  0 R16 -1 GLONASS SLOT / FRQ #
    R17  4 R18 -3 R19  3 R20  2 R21  4 R22 -3 R23  3 R24  2 GLONASS SLOT / FRQ #
    30.000                                                  INTERVAL
  2021     1     3     0     0    0.0000000     GPS         TIME OF FIRST OBS
  2021     1     3    23    59   30.0000000     GPS         TIME OF LAST OBS
    18                                                      LEAP SECONDS
G L1C  0.00000  32 G01 G02 G03 G04 G05 G06 G07 G08 G09 G10  SYS / PHASE SHIFT
                   G11 G12 G13 G14 G15 G16 G17 G18 G19 G20  SYS / PHASE SHIFT
                   G21 G22 G23 G24 G25 G26 G27 G28 G29 G30  SYS / PHASE SHIFT
                   G31 G32                                  SYS / PHASE SHIFT
G L1W -0.25000  32 G01 G02 G03 G04 G05 G06 G07 G08 G09 G10  SYS / PHASE SHIFT
                   G11 G12 G13 G14 G15 G16 G17 G18 G19 G20  SYS / PHASE SHIFT
                   G21 G22 G23 G24 G25 G26 G27 G28 G29 G30  SYS / PHASE SHIFT
                   G31 G32                                  SYS / PHASE SHIFT
G L1X -0.25000  03 G04 G14 G23                              SYS / PHASE SHIFT
G L2W  0.00000  32 G01 G02 G03 G04 G05 G06 G07 G08 G09 G10  SYS / PHASE SHIFT
                   G11 G12 G13 G14 G15 G16 G17 G18 G19 G20  SYS / PHASE SHIFT
                   G21 G22 G23 G24 G25 G26 G27 G28 G29 G30  SYS / PHASE SHIFT
                   G31 G32                                  SYS / PHASE SHIFT
G L2X  0.25000  23 G01 G03 G04 G05 G06 G07 G08 G09 G10 G12  SYS / PHASE SHIFT
                   G14 G15 G17 G18 G23 G24 G25 G26 G27 G29  SYS / PHASE SHIFT
                   G30 G31 G32                              SYS / PHASE SHIFT
G L5X  0.25000  16 G01 G03 G04 G06 G08 G09 G10 G14 G18 G23  SYS / PHASE SHIFT
                   G24 G25 G26 G27 G30 G32                  SYS / PHASE SHIFT
R L1C  0.00000  24 R01 R02 R03 R04 R05 R06 R07 R08 R09 R10  SYS / PHASE SHIFT
                   R11 R12 R13 R14 R15 R16 R17 R18 R19 R20  SYS / PHASE SHIFT
                   R21 R22 R23 R24                          SYS / PHASE SHIFT
R L1P -0.25000  24 R01 R02 R03 R04 R05 R06 R07 R08 R09 R10  SYS / PHASE SHIFT
                   R11 R12 R13 R14 R15 R16 R17 R18 R19 R20  SYS / PHASE SHIFT
                   R21 R22 R23 R24                          SYS / PHASE SHIFT
R L2C  0.25000  24 R01 R02 R03 R04 R05 R06 R07 R08 R09 R10  SYS / PHASE SHIFT
                   R11 R12 R13 R14 R15 R16 R17 R18 R19 R20  SYS / PHASE SHIFT
                   R21 R22 R23 R24                          SYS / PHASE SHIFT
R L2P  0.00000  23 R01 R02 R03 R04 R05 R06 R07 R08 R09 R11  SYS / PHASE SHIFT
                   R12 R13 R14 R15 R16 R17 R18 R19 R20 R21  SYS / PHASE SHIFT
                   R22 R23 R24                              SYS / PHASE SHIFT
R L3X  0.25000  04 R04 R09 R11 R21                          SYS / PHASE SHIFT
E L1X  0.50000  22 E01 E02 E03 E04 E05 E07 E08 E09 E11 E12  SYS / PHASE SHIFT
                   E13 E15 E18 E19 E21 E24 E25 E27 E30 E31  SYS / PHASE SHIFT
                   E33 E36                                  SYS / PHASE SHIFT
E L5X  0.25000  22 E01 E02 E03 E04 E05 E07 E08 E09 E11 E12  SYS / PHASE SHIFT
                   E13 E15 E18 E19 E21 E24 E25 E27 E30 E31  SYS / PHASE SHIFT
                   E33 E36                                  SYS / PHASE SHIFT
E L7X  0.25000  22 E01 E02 E03 E04 E05 E07 E08 E09 E11 E12  SYS / PHASE SHIFT
                   E13 E15 E18 E19 E21 E24 E25 E27 E30 E31  SYS / PHASE SHIFT
                   E33 E36                                  SYS / PHASE SHIFT
J L1C  0.00000  03 J01 J02 J03                              SYS / PHASE SHIFT
J L2X  0.25000  03 J01 J02 J03                              SYS / PHASE SHIFT
J L5X  0.25000  03 J01 J02 J03                              SYS / PHASE SHIFT
C L2I  0.00000  29 C11 C12 C14 C16 C19 C20 C21 C22 C23 C24  SYS / PHASE SHIFT
                   C25 C26 C27 C28 C29 C30 C32 C33 C34 C35  SYS / PHASE SHIFT
                   C36 C37 C40 C41 C42 C43 C44 C45 C46      SYS / PHASE SHIFT
C L7I  0.00000  05 C06 C11 C12 C14 C16                      SYS / PHASE SHIFT
C L7Z  0.25000  24 C19 C20 C21 C22 C23 C24 C25 C26 C27 C28  SYS / PHASE SHIFT
                   C29 C30 C32 C33 C34 C35 C36 C37 C41 C42  SYS / PHASE SHIFT
                   C43 C44 C45 C46                          SYS / PHASE SHIFT
   111                                                      # OF SATELLITES
   G01  1100  1100  1100  1083  1083  1083  1098  1098  1098PRN / # OF OBS
        1083  1083  1083  1097  1097  1097     0     0     0PRN / # OF OBS
   G02   853   853   853   848   848   848     0     0     0PRN / # OF OBS
         848   848   848     0     0     0     0     0     0PRN / # OF OBS
   G03   908   908   908   901   901   901   907   907   907PRN / # OF OBS
         901   901   901   907   907   907     0     0     0PRN / # OF OBS
   G04   911   911   911   909   909   909   911   911   911PRN / # OF OBS
         909   909   909   911   911   911   424   424   424PRN / # OF OBS
   G05   991   991   991   986   986   986   990   990   990PRN / # OF OBS
         986   986   986     0     0     0     0     0     0PRN / # OF OBS
   G06   984   984   984   981   981   981   984   984   984PRN / # OF OBS
         981   981   981   984   984   984     0     0     0PRN / # OF OBS
   G07   957   957   957   954   954   954   957   957   957PRN / # OF OBS
         954   954   954     0     0     0     0     0     0PRN / # OF OBS
   G08  1102  1102  1102  1099  1099  1099  1102  1102  1102PRN / # OF OBS
        1099  1099  1099  1102  1102  1102     0     0     0PRN / # OF OBS
   G09   854   854   854   849   849   849   853   853   853PRN / # OF OBS
         849   849   849   853   853   853     0     0     0PRN / # OF OBS
   G10   951   951   951   947   947   947   950   950   950PRN / # OF OBS
         947   947   947   950   950   950     0     0     0PRN / # OF OBS
   G11  1138  1138  1138  1083  1083  1083     0     0     0PRN / # OF OBS
        1083  1083  1083     0     0     0     0     0     0PRN / # OF OBS
   G12   812   812   812   807   807   807   812   812   812PRN / # OF OBS
         807   807   807     0     0     0     0     0     0PRN / # OF OBS
   G13  1119  1119  1119  1075  1075  1075     0     0     0PRN / # OF OBS
        1075  1075  1075     0     0     0     0     0     0PRN / # OF OBS
   G14   942   942   942   928   928   928   942   942   942PRN / # OF OBS
         928   928   928   941   941   941   553   553   553PRN / # OF OBS
   G15  1087  1087  1087  1085  1085  1085  1087  1087  1087PRN / # OF OBS
        1085  1085  1085     0     0     0     0     0     0PRN / # OF OBS
   G16  1071  1071  1071  1028  1028  1028     0     0     0PRN / # OF OBS
        1028  1028  1028     0     0     0     0     0     0PRN / # OF OBS
   G17   854   854   854   852   852   852   853   853   853PRN / # OF OBS
         852   852   852     0     0     0     0     0     0PRN / # OF OBS
   G18   930   930   930   926   926   926   930   930   930PRN / # OF OBS
         926   926   926   930   930   930     0     0     0PRN / # OF OBS
   G19   864   864   864   854   854   854     0     0     0PRN / # OF OBS
         854   854   854     0     0     0     0     0     0PRN / # OF OBS
   G20   924   924   924   905   905   905     0     0     0PRN / # OF OBS
         905   905   905     0     0     0     0     0     0PRN / # OF OBS
   G21  1118  1118  1118  1068  1068  1068     0     0     0PRN / # OF OBS
        1068  1068  1068     0     0     0     0     0     0PRN / # OF OBS
   G22   827   827   827   819   819   819     0     0     0PRN / # OF OBS
         819   819   819     0     0     0     0     0     0PRN / # OF OBS
   G23   924   924   924   916   916   916   924   924   924PRN / # OF OBS
         916   916   916   924   924   924   855   855   855PRN / # OF OBS
   G24  1085  1085  1085  1069  1069  1069  1085  1085  1085PRN / # OF OBS
        1069  1069  1069  1085  1085  1085     0     0     0PRN / # OF OBS
   G25  1037  1037  1037  1017  1017  1017  1036  1036  1036PRN / # OF OBS
        1017  1017  1017  1034  1034  1034     0     0     0PRN / # OF OBS
   G26  1099  1099  1099  1096  1096  1096  1099  1099  1099PRN / # OF OBS
        1096  1096  1096  1099  1099  1099     0     0     0PRN / # OF OBS
   G27  1125  1125  1125  1118  1118  1118  1123  1123  1123PRN / # OF OBS
        1118  1118  1118  1124  1124  1124     0     0     0PRN / # OF OBS
   G28   968   968   968   935   935   935     0     0     0PRN / # OF OBS
         935   935   935     0     0     0     0     0     0PRN / # OF OBS
   G29   862   862   862   860   860   860   862   862   862PRN / # OF OBS
         860   860   860     0     0     0     0     0     0PRN / # OF OBS
   G30   911   911   911   908   908   908   911   911   911PRN / # OF OBS
         908   908   908   911   911   911     0     0     0PRN / # OF OBS
   G31   999   999   999   989   989   989   998   998   998PRN / # OF OBS
         989   989   989     0     0     0     0     0     0PRN / # OF OBS
   G32   863   863   863   858   858   858   863   863   863PRN / # OF OBS
         858   858   858   863   863   863     0     0     0PRN / # OF OBS
   R01  1147  1147  1147  1145  1145  1145  1146  1146  1146PRN / # OF OBS
        1135  1135  1135     0     0     0                  PRN / # OF OBS
   R02  1113  1113  1113  1109  1109  1109  1111  1111  1111PRN / # OF OBS
        1102  1102  1102     0     0     0                  PRN / # OF OBS
   R03  1010  1010  1010  1009  1009  1009  1009  1009  1009PRN / # OF OBS
        1000  1000  1000     0     0     0                  PRN / # OF OBS
   R04   789   789   789   788   788   788   788   788   788PRN / # OF OBS
         782   782   782     1     1     0                  PRN / # OF OBS
   R05   807   807   807   806   806   806   806   806   806PRN / # OF OBS
         806   806   806     0     0     0                  PRN / # OF OBS
   R06   867   867   867   867   867   867    27    27    27PRN / # OF OBS
           2     2     2     0     0     0                  PRN / # OF OBS
   R07   830   830   830   830   830   830   830   830   830PRN / # OF OBS
         829   829   829     0     0     0                  PRN / # OF OBS
   R08  1042  1042  1042  1041  1041  1041  1042  1042  1042PRN / # OF OBS
        1038  1038  1038     0     0     0                  PRN / # OF OBS
   R09   905   905   905   905   905   905   905   905   905PRN / # OF OBS
         900   900   900   904   904   904                  PRN / # OF OBS
   R10   971   971   971   970   970   970    17    17    17PRN / # OF OBS
           0     0     0     0     0     0                  PRN / # OF OBS
   R11  1082  1082  1082  1082  1082  1082  1082  1082  1082PRN / # OF OBS
        1082  1082  1082   749   749   749                  PRN / # OF OBS
   R12  1091  1091  1091  1091  1091  1091  1091  1091  1091PRN / # OF OBS
        1090  1090  1090     0     0     0                  PRN / # OF OBS
   R13   832   832   832   832   832   832   832   832   832PRN / # OF OBS
         828   828   828     0     0     0                  PRN / # OF OBS
   R14   909   909   909   909   909   909   909   909   909PRN / # OF OBS
         906   906   906     0     0     0                  PRN / # OF OBS
   R15   925   925   925   922   922   922   922   922   922PRN / # OF OBS
         906   906   906     0     0     0                  PRN / # OF OBS
   R16   930   930   930   930   930   930   929   929   929PRN / # OF OBS
         921   921   921     0     0     0                  PRN / # OF OBS
   R17   871   871   871   871   871   871   871   871   871PRN / # OF OBS
         870   870   870     0     0     0                  PRN / # OF OBS
   R18   845   845   845   845   845   845   845   845   845PRN / # OF OBS
         844   844   844     0     0     0                  PRN / # OF OBS
   R19   716   716   716   716   716   716   716   716   716PRN / # OF OBS
         715   715   715     0     0     0                  PRN / # OF OBS
   R20   799   799   799   799   799   799   799   799   799PRN / # OF OBS
         798   798   798     0     0     0                  PRN / # OF OBS
   R21  1187  1187  1187  1186  1186  1186  1186  1186  1186PRN / # OF OBS
        1186  1186  1186  1124  1124  1124                  PRN / # OF OBS
   R22  1112  1112  1112  1112  1112  1112  1104  1104  1104PRN / # OF OBS
        1009  1009  1009     0     0     0                  PRN / # OF OBS
   R23   940   940   940   939   939   939    24    24    24PRN / # OF OBS
           1     1     1     0     0     0                  PRN / # OF OBS
   R24   913   913   913   913   913   913   913   913   913PRN / # OF OBS
         911   911   911     0     0     0                  PRN / # OF OBS
   E01   560   560   560   560   560   560   560   560   560PRN / # OF OBS
   E02   744   744   744   744   744   744   744   744   744PRN / # OF OBS
   E03   465   465   465   464   464   464   464   464   464PRN / # OF OBS
   E04   741   741   741   709   709   709   709   709   709PRN / # OF OBS
   E05    90    90    90    90    90    90    90    90    90PRN / # OF OBS
   E07   907   907   907   907   907   907   907   907   907PRN / # OF OBS
   E08   475   475   475   442   442   442   442   442   442PRN / # OF OBS
   E09    22    22    22    22    22    22    22    22    22PRN / # OF OBS
   E11   469   469   469   469   469   469   469   469   469PRN / # OF OBS
   E12   423   423   423   404   404   404   422   422   422PRN / # OF OBS
   E13  1062  1062  1062  1062  1062  1062  1062  1062  1062PRN / # OF OBS
   E15  1087  1087  1087  1086  1086  1086  1086  1086  1086PRN / # OF OBS
   E18   863   863   863   863   863   863   863   863   863PRN / # OF OBS
   E19   642   642   642   642   642   642   642   642   642PRN / # OF OBS
   E21  1048  1048  1048  1048  1048  1048  1048  1048  1048PRN / # OF OBS
   E24    84    84    84    84    84    84    84    84    84PRN / # OF OBS
   E25   543   543   543   543   543   543   543   543   543PRN / # OF OBS
   E27  1186  1186  1186  1185  1185  1185  1185  1185  1185PRN / # OF OBS
   E30  1350  1350  1350  1350  1350  1350  1350  1350  1350PRN / # OF OBS
   E31   481   481   481   481   481   481   481   481   481PRN / # OF OBS
   E33   823   823   823   823   823   823   823   823   823PRN / # OF OBS
   E36   302   302   302   301   301   301   301   301   301PRN / # OF OBS
   J01   508   508   508   503   503   503   503   503   503PRN / # OF OBS
   J02   603   603   603   603   603   603   603   603   603PRN / # OF OBS
   J03   152   152   152   151   151   151   151   151   151PRN / # OF OBS
   C06     0     0     0     0    70     0    70     0    70PRN / # OF OBS
   C11  1051  1051  1051     0  1062     0  1062     0  1062PRN / # OF OBS
   C12   951   951   951     0   960     0   960     0   960PRN / # OF OBS
   C14  1022  1022  1022     0  1056     0  1056     0  1056PRN / # OF OBS
   C16    57    57    57     0    52     0    52     0    52PRN / # OF OBS
   C19   800   800   800   794     0   794     0   794     0PRN / # OF OBS
   C20   902   902   902   884     0   884     0   884     0PRN / # OF OBS
   C21   854   854   854   227     0   227     0   227     0PRN / # OF OBS
   C22   813   813   813   448     0   448     0   448     0PRN / # OF OBS
   C23  1146  1146  1146  1016     0  1016     0  1016     0PRN / # OF OBS
   C24   851   851   851   566     0   566     0   566     0PRN / # OF OBS
   C25  1068  1068  1068   627     0   627     0   627     0PRN / # OF OBS
   C26   636   636   636   633     0   633     0   633     0PRN / # OF OBS
   C27  1192  1192  1192   733     0   733     0   733     0PRN / # OF OBS
   C28   900   900   900   508     0   508     0   508     0PRN / # OF OBS
   C29   883   883   883   313     0   313     0   313     0PRN / # OF OBS
   C30  1005  1005  1005   719     0   719     0   719     0PRN / # OF OBS
   C32  1036  1036  1036   964     0   964     0   964     0PRN / # OF OBS
   C33  1154  1154  1154   244     0   244     0   244     0PRN / # OF OBS
   C34  1016  1016  1016   954     0   954     0   954     0PRN / # OF OBS
   C35   705   705   705   297     0   297     0   297     0PRN / # OF OBS
   C36   660   660   660   515     0   515     0   515     0PRN / # OF OBS
   C37  1218  1218  1218   473     0   473     0   473     0PRN / # OF OBS
   C40   135   135   135     0     0     0     0     0     0PRN / # OF OBS
   C41  1016  1016  1016   897     0   897     0   897     0PRN / # OF OBS
   C42   839   839   839   782     0   782     0   782     0PRN / # OF OBS
   C43  1016  1016  1016   971     0   971     0   971     0PRN / # OF OBS
   C44   923   923   923   827     0   827     0   827     0PRN / # OF OBS
   C45   684   684   684   413     0   413     0   413     0PRN / # OF OBS
   C46   838   838   838   691     0   691     0   691     0PRN / # OF OBS
                                                            END OF HEADER
> 2021 01 03 00 00  0.0000000  0 38       -.000050668686
G01  24656844.790   129572607.018 6        38.500    24656844.040   129572585.034 3        23.000    24656850.210   100965668.555 7        41.500    24656849.740   100965651.543 3        23.000    24656843.300    96758750.045 6        38.500
G05  24627608.650   129418971.141 6        39.750    24627609.090   129418964.153 4        26.750    24627610.260   100845944.717 6        39.250    24627609.090   100845945.729 4        26.750
G07  20934931.548   110013847.386 8        51.750    20934931.058   110013845.387 7        44.750    20934931.008    85725087.697 8        50.250    20934931.138    85725085.692 7        44.750
G08  22631953.381   118931786.760 7        45.750    22631952.901   118931777.768 7        45.500    22631956.421    92674127.497 7        46.750    22631956.321    92674125.495 7        45.500    22631953.511    88812706.573 8        53.000
G09  23254719.500   122204379.119 7        43.750    23254718.660   122204387.130 5        32.750    23254721.930    95224193.391 7        45.000    23254722.590    95224200.400 5        32.750    23254720.550    91256521.847 8        50.750
G11  22855541.085   120106737.455 7        43.250    22855540.565   120106711.475 5        30.750                                                    22855540.785    93589655.765 5        30.750
G13  23135051.211   121575521.328 7        42.250    23135050.821   121575513.327 4        28.250                                                    23135052.071    94734166.901 4        28.250
G14  20665014.322   108595452.734 8        49.250    20665014.462   108595448.741 7        44.250    20665015.452    84619854.186 9        55.000    20665015.782    84619847.186 7        44.250    20665017.632    81094031.555 9        59.750
G17  23358412.732   122749311.443 7        43.500    23358413.112   122749310.456 5        31.250    23358413.772    95648819.748 7        42.250    23358414.372    95648819.759 5        31.250
G21  24493070.322   128711970.382 6        36.750    24493070.292   128711938.373 3        22.000                                                    24493073.742   100295017.758 3        22.000
G28  20939522.286   110038006.984 8        50.750    20939521.996   110037972.993 7        42.000                                                    20939522.246    85743887.410 7        42.000
G30  20624591.409   108383013.500 8        52.750    20624590.729   108383014.505 7        46.750    20624593.979    84454311.775 9        54.000    20624593.969    84454311.770 7        46.750    20624592.139    80935388.118 9        59.750
R01  21047819.700   112512687.362 8        48.750    21047819.800   112512683.374 8        48.000    21047825.880    87509870.046 7        44.500    21047826.460    87509842.039 7        43.000
R02  21439465.976   114405119.849 8        52.250    21439465.286   114405119.854 8        51.500    21439470.596    88981729.397 8        48.500    21439470.796    88981742.397 8        47.750
R08  23423553.917   125432107.258 7        42.250    23423553.947   125432078.269 7        42.750    23423560.407    97558266.751 7        42.500    23423561.157    97558278.731 7        42.000
R10  22737874.387   121205722.377 7        42.250    22737874.057   121205715.401 7        43.000
R11  20228504.166   108095105.327 9        56.000    20228504.196   108095080.328 9        55.000    20228507.416    84073966.234 9        53.500    20228507.176    84073957.238 8        51.750    20228526.646    81106673.499 2        17.000
R12  21672530.536   115770872.861 9        53.750    21672529.796   115770746.863 8        52.750    21672526.266    90043935.270 7        47.250    21672526.456    90043906.263 7        46.250
R20  22497815.661   120305954.679 6        38.750    22497815.331   120305947.671 6        37.000    22497821.371    93571305.358 7        44.500    22497819.621    93571297.328 7        44.000
R21  21334152.730   114163529.495 8        52.500    21334152.740   114163451.495 8        51.500    21334155.870    88793781.522 8        49.250    21334156.980    88793728.527 8        48.000    21334112.730    85539852.010 8        51.000
R22  23440740.963   125128250.403 7        42.000    23440737.993   125128251.427 6        39.000    23440741.653    97321980.808 5        30.250    23440744.273    97321984.795 4        28.750
E03  24247928.001   127423740.045 8        52.000    24247928.681    97636378.101 9        54.500    24247930.731    95154098.094 8        52.750
E05  26894585.467   141331981.872 7        43.250    26894586.397   108293332.495 7        45.000    26894589.667   105540111.925 7        44.000
E24  27509908.592   144565556.116 7        42.250    27509907.572   110771012.028 7        42.500    27509910.582   107954800.559 7        42.000
E25  24041772.555   126340410.910 8        52.250    24041773.255    96806301.582 9        55.000    24041775.355    94345126.877 9        53.750
J01  44103608.859   231766052.028 5        35.250    44103608.109   180596927.606 5        34.500    44103606.049   173072059.549 6        37.500
C14  25040779.372   130393921.975 6        41.250                    25040770.902                   100828830.955 8                        47.500
C21  24855922.044   129431336.956 7        45.000    24855917.044                   100084493.866 8                        50.000
C24  26249339.378   136687230.972 6        38.750
C26  22315393.271   116202139.070 8        52.250    22315388.671                    89854827.520 9                        56.000
C29  23357518.981   121628785.097 8        49.000    23357513.391                    94051058.004 8                        53.000
C30  26472562.291   137849613.333 6        38.250    26472559.661                   106594059.989 7                        41.750
C33  26681455.649   138937350.623 6        39.750
C35  23670327.299   123257634.085 8        48.500
C36  26584305.191   138431498.108 5        34.500    26584312.211                   107044017.981 7                        42.250
C42  24400840.124   127061602.826 7        45.500
C44  26684393.313   138952640.271 6        36.250
C45  22500506.140   117166083.143 8        51.750    22500508.780                    90600272.751 9                        56.500
> 2021 01 03 00 00 30.0000000  0 38       -.000050668820
G01  24641863.597   129493903.504 5        32.250                                                    24641871.957   100904341.042 6        38.250                                                    24641870.257    96699977.874 7        46.000
G05  24636920.826   129467905.834 6        40.000    24636920.156   129467898.844 4        24.500    24636922.356   100884075.713 6        39.750    24636921.006   100884076.705 4        24.500
G07  20938948.811   110034960.022 8        51.250    20938948.681   110034958.026 7        44.750    20938948.771    85741539.101 8        50.250    20938948.801    85741537.101 7        44.750
G08  22646252.341   119006926.922 7        46.250    22646251.761   119006917.917 7        45.750    22646255.291    92732678.270 7        47.000    22646255.111    92732676.264 7        45.750    22646252.251    88868817.734 8        53.000
G09  23275185.959   122311933.578 7        42.500    23275184.739   122311941.566 5        32.250    23275187.369    95308002.054 7        43.000    23275188.729    95308009.026 5        32.250    23275187.529    91336838.445 8        50.750
G11  22849842.086   120076789.740 7        43.500    22849841.736   120076763.749 5        31.000                                                    22849842.306    93566319.917 5        31.000
G13  23117749.673   121484600.521 7        43.750    23117749.123   121484592.533 4        28.750                                                    23117748.573    94663319.527 4        28.750
G14  20660194.219   108570119.764 8        51.000    20660193.939   108570115.779 7        44.250    20660194.879    84600114.228 9        55.750    20660195.039    84600107.221 7        44.250    20660196.909    81075114.098 9        59.750
G17  23338305.929   122643646.084 7        43.500    23338305.229   122643645.079 5        31.000    23338305.909    95566483.230 7        41.750    23338305.839    95566483.223 5        31.000
G21  24486676.287   128678368.211 6        37.250    24486675.257   128678336.208 3        18.000                                                    24486675.787   100268834.398 3        18.000
G28  20934731.003   110012825.525 8        50.750    20934730.073   110012791.519 7        42.000                                                    20934730.193    85724265.514 7        42.000
G30  20620080.837   108359310.332 9        53.750    20620080.437   108359311.338 7        47.000    20620083.487    84435841.782 9        54.500    20620083.377    84435841.777 7        47.000    20620081.477    80917687.708 9        60.250
R01  21065040.115   112604740.768 8        48.500    21065040.335   112604736.775 8        48.000    21065046.985    87581467.110 7        45.000    21065047.105    87581439.121 7        43.000
R02  21430862.304   114359213.176 8        51.500    21430861.964   114359213.186 8        51.000    21430865.794    88946024.338 7        47.000    21430865.714    88946037.320 7        46.000
R08  23448105.886   125563579.331 7        44.250    23448107.256   125563550.336 7        44.000    23448111.656    97660522.691 7        41.750    23448109.586    97660534.710 6        39.500
R10  22751054.577   121275958.608 7        47.250    22751054.437   121275951.599 7        45.750
R11  20230716.392   108106927.714 9        56.250    20230716.522   108106902.719 9        55.250    20230719.772    84083161.448 9        53.500    20230719.492    84083152.447 8        51.750    20230740.622    81115544.207 2        15.000
R12  21662193.410   115715691.524 8        47.500    21662192.410   115715565.502 8        47.750    21662198.340    90001016.396 8        49.500    21662198.240    90000987.391 8        48.250
R20  22505769.154   120348493.575 6        36.750    22505767.794   120348486.577 6        36.750    22505774.794    93604391.113 7        45.000    22505774.604    93604383.112 7        44.250
R21  21320258.941   114089180.852 8        52.250    21320258.881   114089102.864 8        51.750    21320261.941    88735954.847 8        48.250    21320262.921    88735901.842 8        48.000    21320218.531    85484144.437 8        50.750
R22  23416601.447   124999407.347 6        41.000    23416599.897   124999408.372 6        39.500    23416609.027    97221769.557 5        31.000    23416607.777    97221741.55114        29.000
E03  24256570.559   127469158.049 8        51.750    24256571.529    97671178.911 9        54.500    24256573.569    95188014.137 8        53.000
E05  26912057.567   141423799.302 7        42.750    26912059.267   108363686.089 7        45.000    26912060.677   105608676.878 7        43.500
E24  27521672.145   144627382.047 6        40.500    27521674.175   110818385.173 7        44.000    27521673.785   108000969.290 6        41.000
E25  24046866.190   126367176.483 8        52.000    24046866.600    96826810.269 9        55.250    24046868.750    94365114.160 9        53.750
J01  44102374.835   231759574.147 5        35.000    44102375.585   180591879.932 5        34.000    44102373.525   173067222.201 6        37.750
C14  25038200.548   130380501.994 7        41.500                    25038193.478                   100818453.797 7                        47.250
C21  24871989.794   129515009.668 7        45.000    24871985.304                   100149178.898 8                        49.750
C24  26236395.991   136619832.368 6        39.250
C26  22308417.911   116165819.072 8        52.000    22308413.591                    89826742.60019                        55.750
C29  23357910.678   121630821.339 8        49.000    23357904.408                    94052601.586 8                        53.250
C30  26486518.082   137922285.577 6        37.250    26486516.762                   106650224.849 7                        44.000
C33  26672312.588   138889734.037 6        39.000
C35  23655660.947   123181266.565 8        49.000
C36  26597006.880   138497624.479 6        38.500    26597013.300                   107095151.00917                        44.500
C42  24405239.166   127084507.735 7        46.000
C44  26665499.200   138854246.464 6        37.750
C45  22506567.271   117197644.614 8        51.750    22506569.881                    90624678.08119                        56.750
> 2021 01 03 00 01  0.0000000  0 38       -.000050670956
G01  24626905.529   129415279.368 6        38.750    24626905.719   129415254.40214        23.750    24626911.289   100843075.677 7        41.750    24626910.999   100843056.66014        23.750    24626909.139    96641265.300 8        47.750
G05  24646291.380   129517160.207 6        37.000    24646290.430   129517153.190 3        23.000    24646292.860   100922455.671 6        38.750    24646294.520   100922456.671 3        23.000
G07  20943021.948   110056365.749 8        51.500    20943022.028   110056363.753 7        45.000    20943022.008    85758218.893 8        50.000    20943022.198    85758216.886 7        45.000
G08  22660632.486   119082495.594 7        45.750    22660631.716   119082486.596 7        45.500    22660635.356    92791562.957 7        46.750    22660634.966    92791560.958 7        45.500    22660632.346    88925248.891 8        53.000
G09  23295685.464   122419662.230 7        42.250    23295685.124   122419670.220 5        32.500    23295688.754    95391946.421 7        45.000    23295689.434    95391953.407 5        32.500    23295687.294    91417285.140 8        50.500
G11  22844236.195   120047329.710 7        42.750    22844236.135   120047303.697 5        30.750                                                    22844236.425    93543364.073 5        30.750
G13  23100503.318   121393969.943 7        42.750    23100502.838   121393961.930 5        30.000                                                    23100503.008    94592698.305 5        30.000
G14  20655439.794   108545134.031 7        46.500    20655439.414   108545130.037 7        44.250    20655440.034    84580644.831 9        54.750    20655440.264    84580637.827 7        44.250    20655442.284    81056455.935 9        59.750
G17  23318224.607   122538127.940 7        42.750    23318225.257   122538126.956 5        31.000    23318225.367    95484261.478 6        41.250    23318225.827    95484261.451 5        31.000
G21  24480343.987   128645082.374 6        40.500    24480343.167   128645050.380 3        22.250                                                    24480343.647   100242897.377 3        22.250
G28  20930001.697   109987975.238 8        50.750    20930001.147   109987941.236 7        42.000                                                    20930001.397    85704901.682 7        42.000
G30  20615620.090   108335867.624 8        50.500    20615619.430   108335868.629 7        47.000    20615622.070    84417574.747 9        53.500    20615622.240    84417574.740 7        47.000    20615620.480    80900181.801 9        60.000
R01  21082354.291   112697294.360 8        49.000    21082354.241   112697290.370 8        47.750    21082360.541    87653453.232 7        43.750    21082360.471    87653425.234 7        42.750
R02  21422397.502   114314052.403 8        50.000    21422397.122   114314052.399 8        49.250    21422405.082    88910899.150 8        49.000    21422405.282    88910912.157 8        48.000
R08  23472659.164   125695045.882 7        45.750    23472658.504   125695016.868 7        44.500    23472661.364    97762774.397 6        40.500    23472661.954    97762786.395 6        40.250
R10  22764232.263   121346223.102 7        42.500    22764230.733   121346216.097 7        42.250
R11  20232959.171   108118911.610 9        56.250    20232959.161   108118886.609 9        55.000    20232962.101    84092482.244 8        52.750    20232961.931    84092473.252 8        51.250    20232982.721    81124536.061 2        15.000
R12  21651881.411   115660625.974 8        48.250    21651881.631   115660499.984 8        48.500    21651889.071    89958187.722 8        49.000    21651889.001    89958158.730 8        47.500
R20  22513863.737   120391779.014 6        37.000    22513862.857   120391772.021 6        36.500    22513871.807    93638057.629 7        46.500    22513871.047    93638049.624 7        45.500
R21  21306476.311   114015429.032 8        52.250    21306476.491   114015351.038 8        52.000    21306481.051    88678592.337 8        49.250    21306480.981    88678539.336 8        48.250    21306436.431    85428884.044 8        50.750
R22  23392463.222   124870560.267 6        39.750    23392462.262   124870561.277 6        38.500    23392467.012    97121555.202 4        26.500
E03  24265281.978   127514936.958 8        51.750    24265282.938    97706256.256 9        54.250    24265285.048    95222199.691 8        52.750
E05  26929538.710   141515669.813 7        41.500    26929540.750   108434080.364 7        44.500    26929543.910   105677281.459 7        44.000
E24  27533430.912   144689167.098 7        42.750    27533431.232   110865726.971 7        44.000    27533432.532   108047107.449 7        42.250
E25  24051975.699   126394027.507 8        52.500    24051976.059    96847384.446 9        55.000    24051978.279    94385165.265 9        53.750
J01  44101145.548   231753107.680 5        34.750    44101144.458   180586841.170 5        34.500    44101142.998   173062393.385 6        37.500
C14  25035715.638   130367552.031 7        42.250                    25035707.348                   100808440.062 8                        47.500
C21  24888082.667   129598805.796 7        44.500    24888078.007                   100213975.355 8                        50.000
C24  26223453.703   136552433.897 6        39.500
C26  22301464.088   116129606.893 8        52.250    22301459.518                    89798741.081 9                        56.250
C29  23358396.889   121633359.095 8        48.750    23358391.819                    94054563.953 8                        53.000
C30  26500534.010   137995259.156 6        38.250    26500530.400                   106706652.645 7                        44.250
C33  26663245.271   138842521.187 6        40.000
C35  23641047.756   123105174.391 8        48.250
C36  26609714.356   138563782.699 6        41.000    26609718.536                   107146308.829 7                        45.250
C42  24409723.371   127107855.502 7        45.500
C44  26646582.081   138755739.952 6        38.250
C45  22512653.195   117229333.762 8        52.000    22512655.565                    90649182.144 9                        56.500
> 2021 01 03 00 01 30.0000000  0 38       -.000050670482
G01  24611953.768   129336737.832 5        31.500    24611956.738   129336712.827 2        13.250    24611961.938   100781874.627 6        35.500    24611963.138   100781855.609 2        13.250    24611960.888    96582614.274 7        43.750
G05  24655728.623   129566731.457 6        41.000    24655726.943   129566724.453 4        27.000    24655727.683   100961082.557 6        40.250    24655728.603   100961083.582 4        27.000
G07  20947151.682   110078065.365 8        51.750    20947151.292   110078063.369 7        44.500    20947151.672    85775127.683 8        50.500    20947151.352    85775125.682 7        44.500
G08  22675093.706   119158489.889 7        45.750    22675093.266   119158480.895 7        45.750    22675097.406    92850779.297 8        47.500    22675096.826    92850777.298 7        45.750    22675093.546    88981997.893 8        52.500
G09  23316216.567   122527562.536 6        40.750    23316217.757   122527570.550 5        32.500    23316222.257    95476024.593 7        45.000    23316221.937    95476031.575 5        32.500    23316220.407    91497860.032 8        50.750
G11  22838723.360   120018359.247 7        43.250    22838722.880   120018333.245 5        31.000                                                    22838723.200    93520789.730 5        31.000
G13  23083312.316   121303632.221 7        42.750    23083312.216   121303624.228 5        31.250                                                    23083312.866    94522305.326 5        31.250
G14  20650750.275   108520494.963 8        49.250    20650750.535   108520490.968 7        44.250    20650751.565    84561445.578 9        55.500    20650751.665    84561438.575 7        44.250    20650753.625    81038056.652 9        59.750
G17  23298175.298   122432759.913 7        44.000    23298174.188   122432758.905 5        31.250    23298174.758    95402156.603 6        41.250    23298174.848    95402156.600 5        31.250
G21  24474067.798   128612115.083 6        35.500    24474066.978   128612083.081 3        20.500                                                    24474071.338   100217208.686 3        20.500
G28  20925335.821   109963455.602 7        46.500    20925335.281   109963421.608 7        42.250                                                    20925335.451    85685795.469 7        42.250
G30  20611208.806   108312686.661 8        49.750    20611208.106   108312687.661 7        47.000    20611211.136    84399511.661 9        53.750    20611211.056    84399511.657 7        47.000    20611209.226    80882871.348 9        60.000
R01  21099761.665   112790343.661 8        48.500    21099760.895   112790339.656 8        47.500    21099766.975    87725824.895 7        44.000    21099767.805    87725796.890 7        42.750
R02  21414077.322   114269639.463 8        53.250    21414076.892   114269639.460 8        52.250    21414082.142    88876355.872 8        48.750    21414081.202    88876368.866 7        47.250
R08  23497206.970   125826502.646 7        45.500    23497207.100   125826473.647 7        44.750    23497213.500    97865018.473 7        43.500    23497211.330    97865030.481 6        40.750
R10  22777424.553   121416515.590 8        48.000    22777424.013   121416508.587 7        46.750
R11  20235231.346   108131056.678 9        56.000    20235231.726   108131031.681 9        55.000    20235235.506    84101928.436 9        53.500    20235234.996    84101919.436 8        51.500    20235256.476    81133648.833 2        15.500
R12  21641598.377   115605676.447 8        51.750    21641598.157   115605550.455 8        50.500    21641601.167    89915449.279 8        47.500    21641600.737    89915420.273 7        46.500
R20  22522098.195   120435809.150 6        38.750    22522098.645   120435802.152 6        37.250    22522103.245    93672303.237 7        43.750    22522101.475    93672295.260 7        43.500
R21  21292806.749   113942278.178 8        52.250    21292806.139   113942200.188 8        51.500    21292809.829    88621697.274 8        49.000    21292810.759    88621644.269 8        48.250    21292766.399    85374073.960 8        51.250
R22  23368325.062   124741713.069 6        39.000    23368324.132   124741714.102 6        37.500    23368329.042    97021340.784 4        27.750
E03  24274061.761   127561075.634 8        52.000    24274062.841    97741609.271 9        54.500    24274064.851    95256653.904 8        52.750
E05  26947031.012   141607591.693 7        42.250    26947033.952   108504513.977 7        44.750    26947035.862   105745924.384 7        43.750
E24  27545181.566   144750911.278 7        42.250    27545178.336   110913037.427 7        41.500    27545183.426   108093215.116 7        42.500
E25  24057101.462   126420963.352 8        52.500    24057101.712    96868023.604 9        55.000    24057103.842    94405279.700 9        53.750
J01  44099915.591   231746652.653 5        34.250    44099916.211   180581811.307 5        34.500    44099915.121   173057573.110 6        37.250
C14  25033318.011   130355072.162 7        42.000                    25033310.611                   100798789.820 8                        48.000
C21  24904200.024   129682722.770 7        45.000    24904193.134                   100278865.247 8                        49.750
C24  26210512.401   136485035.485 7        41.750
C26  22294530.484   116093502.790 8        52.250    22294525.994                    89770823.109 9                        56.000
C29  23358980.965   121636398.461 8        48.750    23358975.495                    94056914.200 8                        53.000
C30  26514603.077   138068532.075 6        38.000    26514601.607                   106763311.927 7                        41.750
C33  26654256.578   138795713.313 6        40.500
C35  23626489.246   123029359.947 8        48.750
C36  26622423.622   138629973.153 6        37.250    26622428.852                   107197491.405 7                        44.250
C42  24414291.220   127131644.963 7        45.000
C44  26627642.459   138657122.643 6        36.750
C45  22518763.172   117261150.766 8        51.500    22518765.552                    90673785.068 9                        56.500
> 2021 01 03 00 02  0.0000000  0 38       -.000050672033
G01  24597028.946   129258282.264 6        37.500    24597030.466   129258236.27312        14.750    24597029.696   100720740.456 5        31.000    24597030.166   100720704.42212        14.750    24597033.066    96524027.311 7        47.250
G05  24665219.092   129616615.909 6        39.000    24665219.372   129616608.938 4        24.750    24665222.632   100999953.612 6        40.500    24665219.292   100999954.619 4        24.750
G07  20951336.784   110100059.608 8        51.000    20951336.524   110100057.611 7        44.750    20951336.654    85792266.053 8        50.250    20951336.804    85792264.052 7        44.750
G08  22689634.547   119234907.329 7        45.250    22689635.017   119234898.345 7        45.500    22689638.457    92910325.363 7        47.000    22689638.087    92910323.363 7        45.500    22689635.557    89039062.876 8        52.750
G09  23336783.538   122635631.987 7        41.750    23336782.928   122635639.982 5        32.000    23336785.148    95560234.483 7        44.000    23336786.358    95560241.495 5        32.000    23336785.328    91578561.210 8        50.750
G11  22833304.036   119989880.035 7        43.000    22833303.386   119989854.038 5        31.000                                                    22833303.646    93498598.172 5        31.000
G13  23066177.804   121213590.093 7        43.500    23066177.404   121213582.084 5        32.000                                                    23066177.624    94452142.676 5        32.000
G14  20646127.660   108496201.953 8        50.750    20646127.820   108496197.962 7        44.250    20646128.590    84542515.978 9        55.750    20646128.920    84542508.976 7        44.250    20646130.870    81019915.790 9        59.500
G17  23278151.855   122327544.446 7        42.500    23278151.945   122327543.474 5        31.500    23278153.965    95320170.680 7        42.750    23278153.505    95320170.653 5        31.500
G21  24467855.987   128579468.082 6        37.750    24467854.937   128579436.079 3        20.500                                                    24467857.907   100191769.608 3        20.500
G28  20920732.756   109939265.755 8        49.750    20920731.916   109939231.756 7        42.250                                                    20920732.406    85666946.269 7        42.250
G30  20606847.574   108289768.612 8        52.500    20606846.964   108289769.616 7        47.000    20606850.264    84381653.449 9        54.500    20606849.964    84381653.447 7        47.000    20606848.184    80865757.232 9        59.750
R01  21117259.849   112883884.214 8        48.500    21117259.869   112883880.213 8        47.750    21117267.139    87798578.638 7        44.750    21117266.909    87798550.643 7        42.750
R02  21405892.310   114225975.509 8        49.750    21405891.230   114225975.521 8        49.000    21405899.980    88842395.013 8        49.500    21405900.500    88842408.012 8        48.250
R08  23521752.513   125957946.193 7        45.250    23521753.713   125957917.205 7        44.750    23521755.243    97967252.297 6        40.750    23521756.003    97967264.290 6        40.000
R10  22790610.802   121486836.755 7        44.000    22790611.642   121486829.771 7        43.250
R11  20237534.814   108143362.696 9        56.000    20237534.924   108143337.702 9        55.250    20237537.514    84111499.791 8        52.750    20237537.474    84111490.795 8        51.250    20237556.494    81142882.372 2        14.250
R12  21631329.932   115550842.326 8        48.750    21631330.172   115550716.328 8        48.750    21631337.562    89872800.536 8        49.000    21631337.442    89872771.529 8        48.000
R20  22530471.337   120480582.869 6        39.000    22530471.827   120480575.867 6        37.500    22530480.327    93707127.298 8        47.500    22530479.397    93707119.291 7        45.750
R21  21279249.654   113869732.160 8        52.250    21279250.044   113869654.161 8        51.750    21279254.014    88565272.608 8        49.500    21279253.784    88565219.609 8        48.250    21279209.264    85319717.051 8        50.750
R22  23344189.556   124612870.292 6        39.750    23344187.376   124612871.275 6        38.250    23344195.866    96921129.742 5        31.000    23344196.206    96921119.72915        30.000
E03  24282910.312   127607572.948 8        51.750    24282910.972    97777237.087 9        54.500    24282912.982    95291375.922 8        52.750
E05  26964532.806   141699563.212 7        42.750    26964535.276   108574985.646 7        45.000    26964536.706   105814604.388 7        43.500
E24  27556922.324   144812614.349 7        42.000    27556921.464   110960316.415 7        42.750    27556922.204   108139292.129 6        41.000
E25  24062243.218   126447983.406 8        52.500    24062243.498    96888727.291 9        55.000    24062245.408    94425457.020 9        53.500
J01  44098689.333   231740209.349 5        34.500    44098690.643   180576790.592 5        34.500    44098688.863   173052761.590 6        37.000
C14  25031010.025   130343062.392 6        41.250                    25031003.325                   100789503.133 7                        47.000
C21  24920335.506   129766757.970 7        44.500    24920330.856                   100343846.600 8                        49.750
C24  26197566.335   136417636.976 6        40.250
C26  22287617.853   116057507.031 8        52.000    22287613.353                    89742988.924 9                        55.750
C29  23359661.073   121639939.573 8        49.000    23359655.433                    94059652.427 8                        53.250
C30  26528730.558   138142102.376 6        38.000    26528729.668                   106820201.215 6                        41.250
C33  26645346.502   138749311.645 6        40.000
C35  23611983.059   122953825.667 8        49.000
C36  26635143.386   138696196.007 6        40.250    26635147.106                   107248699.078 7                        44.750
C42  24418944.241   127155874.776 7        46.000
C44  26608681.897   138558396.436 6        38.500
C45  22524897.782   117293095.816 8        51.500    22524900.222                    90698487.013 9                        56.500
> 2021 01 03 00 02 30.0000000  0 38       -.000050672376
G01  24582116.326   129179915.733 5        34.250    24582114.526   129179869.795 3        18.250    24582121.976   100659675.754 6        40.500    24582124.316   100659639.746 3        18.250    24582120.806    96465506.997 8        48.750
G05  24674769.924   129666811.853 6        39.250    24674770.514   129666804.887 3        23.000    24674771.744   101039067.374 6        37.500    24674770.534   101039068.341 3        23.000
G07  20955578.305   110122349.332 8        51.250    20955578.225   110122347.330 7        45.000    20955578.515    85809634.675 8        50.750    20955578.415    85809632.670 7        45.000
G08  22704256.557   119311745.422 7        45.250    22704256.667   119311736.439 7        45.500    22704260.667    92970199.218 7        47.000    22704260.317    92970197.214 7        45.500    22704256.877    89096441.982 8        52.750
G09  23357380.333   122743867.986 7        42.250    23357379.863   122743875.972 5        32.250    23357384.243    95644574.203 7        45.250    23357384.073    95644581.199 5        32.250    23357381.383    91659386.756 8        50.250
G11  22827978.338   119961893.895 7        43.750    22827978.138   119961867.897 5        31.000                                                    22827978.088    93476790.825 5        31.000
G13  23049099.146   121123846.369 7        42.250    23049099.046   121123838.385 5        31.750                                                    23049100.016    94382212.542 5        31.750
G14  20641570.789   108472254.420 8        51.250    20641570.639   108472250.430 7        44.250    20641571.569    84523855.570 9        55.750    20641571.829    84523848.570 7        44.250    20641573.709    81002032.905 9        59.500
G17  23258160.032   122222484.415 7        43.500    23258159.472   122222483.423 5        31.750    23258160.092    95238305.795 7        41.500    23258161.372    95238305.790 5        31.750
G21  24461706.639   128547143.288 6        40.250    24461705.399   128547111.283 3        21.750                                                    24461704.849   100166581.466 3        21.750
G28  20916191.798   109915404.731 8        48.500    20916191.198   109915370.735 7        42.000                                                    20916191.538    85648353.285 7        42.000
G30  20602536.427   108267114.706 8        52.000    20602535.867   108267115.709 7        47.000    20602538.957    84364001.062 9        54.500    20602538.997    84364001.059 7        47.000    20602537.297    80848840.364 9        60.000
R01  21134849.662   112977911.773 8        48.000    21134849.562   112977907.773 8        47.750    21134855.782    87871711.172 7        44.250    21134855.982    87871683.180 7        42.750
R02  21397851.694   114183063.368 8        52.000    21397851.204   114183063.365 8        50.750    21397855.204    88809018.925 7        47.250    21397855.684    88809031.920 7        46.500
R08  23546294.235   126089372.013 7        43.500    23546294.625   126089343.019 7        43.000    23546300.215    98069472.308 7        42.500    23546300.375    98069484.323 6        40.500
R10  22803810.510   121557186.967 7        45.500    22803810.180   121557179.964 7        44.750
R11  20239867.163   108155829.576 9        55.750    20239867.323   108155804.580 9        54.750    20239870.783    84121196.260 8        53.000    20239870.593    84121187.266 8        51.500    20239890.053    81152236.675 2        15.750
R12  21621088.037   115496123.226 8        51.250    21621088.147   115495997.234 8        50.250    21621093.607    89830241.277 8        49.000    21621093.757    89830212.275 8        48.000
R20  22538981.279   120526097.881 6        37.750    22538981.139   120526090.879 6        36.000    22538985.819    93742527.899 6        41.000    22538984.939    93742519.859 7        43.000
R21  21265806.384   113797795.029 8        51.750    21265806.204   113797717.038 8        51.250    21265810.754    88509321.552 8        49.750    21265810.924    88509268.554 8        48.250    21265766.024    85265816.377 8        51.250
R22  23320051.427   124484036.338 6        39.250    23320053.477   124484037.349 6        38.750    23320059.317    96820925.618 5        31.750    23320063.177    96820915.62515        30.500
E03  24291826.579   127654427.746 8        51.750    24291827.189    97813138.815 9        54.250    24291829.139    95326364.899 8        52.750
E05  26982043.402   141791582.629 7        41.750    26982046.012   108645493.995 7        44.500    26982048.072   105883320.148 7        43.500
E24  27568656.380   144874276.362 7        41.500    27568656.020   111007563.929 7        43.500    27568657.980   108185338.381 7        42.250
E25  24067400.777   126475087.031 8        52.250    24067401.277    96909495.010 9        55.000    24067403.207    94445696.748 9        53.500
J01  44097466.848   231733778.056 5        35.000    44097465.458   180571779.226 5        34.500    44097465.118   173047959.037 6        36.750
C14  25028792.438   130331522.631 6        41.000                    25028787.288                   100780579.849 7                        46.750
C21  24936497.484   129850908.900 7        45.250    24936490.944                   100408917.428 8                        49.250
C24  26184622.187   136350238.357 6        38.750
C26  22280726.155   116021619.861 8        52.250    22280721.655                    89715238.697 9                        56.000
C29  23360437.809   121643982.554 8        49.500    23360431.849                    94062778.728 8                        53.000
C30  26542918.446   138215968.035 6        39.250    26542914.236                   106877318.902 7                        42.750
C33  26636511.658   138703317.529 6        37.500
C35  23597531.815   122878573.891 8        48.750
C36  26647863.977   138762451.371 6        37.500    26647868.487                   107299932.100 7                        41.750
C42  24423683.654   127180543.626 7        46.500
C44  26589702.792   138459563.356 6        36.750
C45  22531057.053   117325169.101 8        51.500    22531059.653                    90723288.119 9                        56.500
> 2021 01 03 00 03  0.0000000  0 38       -.000050670762
G01  24567222.176   129101641.695 6        38.750    24567221.666   129101595.701 3        21.500    24567226.036   100598683.114 6        38.750    24567227.276   100598647.079 3        21.500    24567222.126    96407055.621 7        41.500
G05  24684381.051   129717316.601 6        39.250    24684381.691   129717309.608 4        26.750    24684384.541   101078421.689 6        40.250    24684384.431   101078422.685 4        26.750
G07  20959876.125   110144935.297 8        51.250    20959876.295   110144933.303 7        45.000    20959876.675    85827234.135 8        50.500    20959876.365    85827232.129 7        45.000
G08  22718958.127   119389001.502 7        45.750    22718957.937   119388992.522 7        45.250    22718961.477    93030398.763 7        46.500    22718960.977    93030396.757 7        45.250    22718958.967    89154133.211 8        52.750
G09  23378007.682   122852267.924 7        42.250    23378007.652   122852275.935 5        31.750    23378011.482    95729041.658 7        44.000    23378011.332    95729048.688 5        31.750    23378009.922    91740334.755 8        50.500
G11  22822746.612   119934402.549 7        43.250    22822746.332   119934376.555 5        31.000                                                    22822746.372    93455369.036 5        31.000
G13  23032079.702   121034404.251 7        43.250    23032079.222   121034396.251 5        32.250                                                    23032080.182    94312517.422 5        32.250
G14  20637079.359   108448651.719 8        51.500    20637079.179   108448647.730 7        44.250    20637080.249    84505463.873 9        56.000    20637080.339    84505456.871 7        44.250    20637082.209    80984407.532 9        60.000
G17  23238198.022   122117582.636 7        43.750    23238197.912   122117581.637 5        31.750    23238198.562    95156564.225 7        41.750    23238198.642    95156564.236 5        31.750
G21  24455616.201   128515143.343 6        37.500    24455615.271   128515111.333 3        19.750                                                    24455615.081   100141646.445 3        19.750
G28  20911713.776   109891871.630 7        44.750    20911713.176   109891837.650 7        42.500                                                    20911713.456    85630015.820 7        42.500
G30  20598276.021   108244726.148 8        49.000    20598275.611   108244727.152 7        47.000    20598278.671    84346555.441 9        54.500    20598278.691    84346555.437 7        47.000    20598276.811    80832121.643 9        60.000
R01  21152529.991   113072421.918 8        48.500    21152530.011   113072417.929 8        48.000    21152536.641    87945219.068 7        44.250    21152536.791    87945191.065 7        42.500
R02  21389952.433   114140904.053 8        53.250    21389952.263   114140904.056 8        52.500    21389957.333    88776228.332 8        49.000    21389957.213    88776241.324 8        48.000
R08  23570832.475   126220776.474 7        42.500    23570833.205   126220747.477 7        42.000    23570838.695    98171675.750 6        40.500    23570839.245    98171687.761 6        40.000
R10  22817014.933   121627566.098 7        46.250    22817014.623   121627559.091 7        45.000
R11  20242230.514   108168457.058 9        55.500    20242230.444   108168432.062 9        55.000    20242234.094    84131017.645 8        53.000    20242233.894    84131008.646 8        51.750    20242254.084    81161711.355 2        15.500
R12  21610866.922   115441518.884 8        51.500    21610866.232   115441392.882 8        50.250    21610870.852    89787771.230 8        49.000    21610870.972    89787742.235 7        47.250
R20  22547633.178   120572352.462 6        38.000    22547632.888   120572345.469 6        37.750    22547639.998    93778503.656 7        46.750    22547639.448    93778495.656 7        45.750
