     3.03           OBSERVATION DATA    M                   RINEX VERSION / TYPE
sbf2rin-13.0.0x                         20210104 000712 UTC PGM / RUN BY / DATE
IISC                                                        MARKER NAME
22306M002                                                   MARKER NUMBER
GGN                 C-MMACS                                 OBSERVER / AGENCY
3013572             SEPT POLARX5        5.3.2               REC # / TYPE / VERS
CR6200548032        ASH701945E_M    NONE                    ANT # / TYPE
  1337936.4550  6070317.1261  1427876.7852                  APPROX POSITION XYZ
        0.0780        0.0000        0.0000                  ANTENNA: DELTA H/E/N
G   14 C1C L1C S1C C1W S1W C2W L2W S2W C2L L2L S2L C5Q L5Q  SYS / # / OBS TYPES
       S5Q                                                  SYS / # / OBS TYPES
E   15 C1C L1C S1C C6C L6C S6C C5Q L5Q S5Q C7Q L7Q S7Q C8Q  SYS / # / OBS TYPES
       L8Q S8Q                                              SYS / # / OBS TYPES
R   12 C1C L1C S1C C1P L1P S1P C2P L2P S2P C2C L2C S2C      SYS / # / OBS TYPES
C    9 C2I L2I S2I C7I L7I S7I C6I L6I S6I                  SYS / # / OBS TYPES
J    9 C1C L1C S1C C2L L2L S2L C5Q L5Q S5Q                  SYS / # / OBS TYPES
I    3 C5A L5A S5A                                          SYS / # / OBS TYPES
SEPTENTRIO RECEIVERS OUTPUT ALIGNED CARRIER PHASES.         COMMENT
NO FURTHER PHASE SHIFT APPLIED IN THE RINEX ENCODER.        COMMENT
G L1C                                                       SYS / PHASE SHIFT
G L2W                                                       SYS / PHASE SHIFT
G L2L  0.00000                                              SYS / PHASE SHIFT
G L5Q  0.00000                                              SYS / PHASE SHIFT
E L1C  0.00000                                              SYS / PHASE SHIFT
E L6C  0.00000                                              SYS / PHASE SHIFT
E L5Q  0.00000                                              SYS / PHASE SHIFT
E L7Q  0.00000                                              SYS / PHASE SHIFT
E L8Q  0.00000                                              SYS / PHASE SHIFT
R L1C                                                       SYS / PHASE SHIFT
R L1P  0.00000                                              SYS / PHASE SHIFT
R L2P  0.00000                                              SYS / PHASE SHIFT
R L2C                                                       SYS / PHASE SHIFT
C L2I                                                       SYS / PHASE SHIFT
C L7I                                                       SYS / PHASE SHIFT
C L6I                                                       SYS / PHASE SHIFT
J L1C                                                       SYS / PHASE SHIFT
J L2L  0.00000                                              SYS / PHASE SHIFT
J L5Q  0.00000                                              SYS / PHASE SHIFT
I L5A                                                       SYS / PHASE SHIFT
    30.000                                                  INTERVAL
  2021     1     3     0     0    0.0000000     GPS         TIME OF FIRST OBS
  2021     1     3    23    59   30.0000000     GPS         TIME OF LAST OBS
   123                                                      # OF SATELLITES
 C1C    0.000 C1P    0.000 C2C    0.000 C2P    0.000        GLONASS COD/PHS/BIS
DBHZ                                                        SIGNAL STRENGTH UNIT
 24 R01  1 R02 -4 R03  5 R04  6 R05  1 R06 -4 R07  5 R08  6 GLONASS SLOT / FRQ #
    R09 -2 R10 -7 R11  0 R12 -1 R13 -2 R14 -7 R15  0 R16 -1 GLONASS SLOT / FRQ #
    R17  4 R18 -3 R19  3 R20  2 R21  4 R22 -3 R23  3 R24  2 GLONASS SLOT / FRQ #
                                                            END OF HEADER
> 2021 01 03 00 00  0.0000000  0 49
C01  40364942.570 5                        31.719    40364939.308 4 162532886.78204        29.844
C02  35828894.232 7 186570516.18107        45.469    35828890.465 8 144268167.44308        50.156    35828889.660 6 151603827.89706        39.844
C03  37044251.495 7 192899146.94607        43.031    37044250.334 7 149161854.63207        46.531    37044247.155 6 156746341.80306        36.500
C05  36461205.594 7 189863079.80907        44.875    36461203.741 8 146814172.53408        48.562    36461201.658 6 154279287.14506        39.594
C06  37185689.680 7 193635661.98007        44.062    37185687.797 7 149731370.21707        46.906    37185683.452 6 157344802.43406        38.281
C08  38144475.146 6 198628370.24506        39.594    38144472.503 7 153592071.92607        44.906    38144467.868 5 161401812.46405        35.156
C09  35931090.378 7 187102633.38307        47.031    35931089.982 8 144679715.67708        50.500    35931083.969 6 152036189.42506        40.281
C10  39663767.769 5 206539723.31705        33.781    39663767.602 6 159709660.35906        36.531    39663761.293 4 167830409.65004        28.688
C13  37113498.984 7 193259814.77007        44.938    37113503.490 7 149440816.86907        45.125    37113498.101 6 157039443.10406        37.562
C16  36938369.570 7 192347801.39707        46.500    36938372.510 7 148735536.43407        47.094    36938366.340 6 156298321.79906        36.906
C23  25824521.857 6 134475080.69606        37.188                                                    25824512.158 5 109271966.66905        31.125
C25  25967865.197 4                        25.031
C27  22537356.350 8 117357938.46408        49.594                                                    22537353.965 6  95362924.28606        40.594
C28  21813068.354 8 113586375.52308        50.312                                                    21813066.678 7  92298232.68607        44.062
C32  23885865.753 7 124379981.82907        45.188                                                    23885865.955 6 101068920.44706        38.969
C33  25872808.481 5                        30.875
E01                                                                                                  28528908.659 3                        19.438
E07  26015515.758 7 136712482.02107        42.750    26015510.178 5 110967884.50905        31.281    26015513.829 5 102090473.84405        34.844    26015517.168 7 104753737.66607        44.969    26015513.688 7 103422096.32507        44.469
E13  25808452.234 6 135624370.86506        41.062    25808448.879 5 110084684.72205        30.125    25808449.718 6 101277946.43206        36.375    25808453.079 7 103919989.95007        45.469    25808449.574 7 102598967.26507        45.062
E18  19562547.583 7 102801890.04607        47.375    19562541.764 6  83443057.96606        36.000    19562543.968 6  76767630.59406        41.438    19562547.481 8  78770273.62808        50.625    19562543.964 8  77768951.19008        50.312
E19  24854742.839 6 130612568.41306        40.594                                                    24854738.948 5  97535331.78605        33.125    24854742.066 7 100079751.15907        43.250
E26  23039718.972 8 121074563.94008        48.344    23039714.676 6  98274773.01606        38.000    23039717.323 7  90412829.33507        42.094    23039720.544 8  92771438.46608        51.719    23039717.420 8  91592128.47708        51.312
E33  25838061.587 6 135779953.00206        40.188                                                    25838057.583 5 101394097.27505        34.625    25838061.438 7 104039175.76407        45.531    25838057.569 7 102716626.58807        44.750
G10  22812656.337 7 119881314.45607        43.688    22812655.676 7        44.625    22812656.807 7  93414018.79307        44.625    22812656.668 7  93414027.80107        43.281    22812650.287 6  89521749.09706        38.281
G15  22616896.572 7 118852605.61307        42.281    22616896.148 6        39.156    22616894.740 6  92612417.59906        39.156    22616895.633 6  92612424.58706        38.188
G18  21179603.814 7 111299571.46607        45.281    21179603.425 6        37.969    21179601.893 6  86726935.61106        37.969    21179602.453 7  86726940.61707        47.375    21179601.864 7  83113320.07607        42.375
G20  21884455.728 7 115003608.25507        43.156    21884454.427 5        31.812    21884453.393 5  89613192.77505        31.812
G23  21973243.908 7 115470191.01807        43.094    21973243.542 5        32.594    21973242.064 5  89976770.41405        32.594    21973242.600 7  89976770.42107        44.031    21973242.028 6  86227738.55806        39.562
G24  22552661.868 6 118515044.06306        39.969    22552661.444 6        40.469    22552662.144 6  92349383.23606        40.469    22552663.150 7  92349374.23107        42.312    22552658.175 6  88501469.37906        37.812
G25                                                                                                                                  25087328.355 3                        22.500
G26                                                                                                                                  25247960.153 3                        21.500
G29  21390801.591 7 112409431.87207        46.594    21390800.965 8        50.969    21390800.212 8  87591755.81408        50.969    21390800.404 7  87591754.82207        45.469
G32  22471874.627 7 118090504.14507        44.750    22471874.198 7        45.688    22471874.215 7  92018574.21407        45.688    22471875.243 7  92018571.21607        43.375    22471868.512 6  88184447.48206        37.281
I01  41815543.691 7 164093236.79507        43.188
I02  37754421.853 6 148156561.67706        38.750
I03  35942286.594 7 141045328.89407        46.188
I04  38735932.208 6 152008141.95706        38.688
I05  36965294.398 6 145059790.52706        41.250
I06  38148504.864 6 149703038.11906        38.625
I07  43525402.862 6 170803034.80606        38.438
J01                                                  42848328.171 4 175456747.17804        29.656
J03  36984091.809 6 194352807.15806        37.844    36984091.874 6 151443789.33406        40.781    36984087.991 5 145133630.47205        34.031
J07  38437085.512 5 201988282.58605        34.781    38437085.529 7 157393455.49407        43.125    38437082.698 6 150835390.44006        37.750
R03  21995791.308 6 117745218.23506        36.406    21995791.063 6 117745197.22306        36.500    21995796.773 7  91579632.85507        42.344    21995796.823 7  91579630.85307        42.156
R04  20099019.484 6 107629325.19506        40.875    20099019.261 6 107629349.21606        41.719    20099024.833 7  83711737.63707        46.969    20099024.582 7  83711737.64407        47.062
R05  22011340.902 6 117663241.79606        37.562    22011341.017 6 117663246.77506        37.594    22011347.462 6  91515876.93506        41.406    22011347.334 6  91515881.92806        41.688
R17  20903895.226 6 111860969.07106        40.125    20903895.490 6 111860975.08206        40.000    20903901.153 7  87003009.91407        45.031    20903901.362 7  87003035.92107        44.625
R18  19375386.135 7 103427137.23207        45.688    19375386.402 7 103427143.22907        45.562    19375392.486 8  80443354.05608        49.969    19375392.275 8  80443364.06708        49.312
R19                                                                                                                                                  21647529.532 6  90066430.34406        40.594
> 2021 01 03 00 00 30.0000000  0 48
C01  40364968.076 5 210190979.65205        30.688    40364965.945 5                        30.250
C02  35828876.421 7 186570424.21307        45.188    35828872.752 8 144268096.33908        50.094    35828871.952 6 151603753.17406        39.750
C03  37044367.288 7 192899750.31207        42.844    37044365.881 7 149162321.19607        46.312    37044363.174 6 156746832.08506        36.469
C05  36461189.505 7 189862996.60507        44.469    36461187.521 8 146814108.19008        48.406    36461185.693 6 154279219.53206        39.469
C06  37187555.304 7 193645377.35407        43.719    37187553.334 7 149738882.75807        46.656    37187549.357 6 157352696.98206        38.375
C08  38139617.460 6 198603074.48106        39.688    38139614.483 7 153572511.63307        44.656    38139609.785 5 161381257.56105        34.719
C09  35929530.361 7 187094511.25307        46.312    35929529.993 8 144673435.13008        50.188    35929524.297 6 152029589.53306        40.281
C10  39667590.469 5 206559629.17505        33.406    39667590.249 6 159725052.84106        36.688    39667584.084 4 167846584.83704        28.562
C13  37108356.501 7 193233037.27407        44.625    37108361.233 7 149420110.79907        45.062    37108355.730 6 157017684.19306        37.375
C16  36939956.301 7 192356063.08107        46.312    36939959.191 7 148741924.89207        47.094    36939953.073 6 156305035.09006        37.281
C23  25816850.353 6 134435131.89506        37.344                                                    25816841.218 5 109239505.02905        31.469
C25  25961881.906 4                        25.281
C27  22525887.720 8 117298219.24408        49.188                                                    22525885.447 6  95314397.52506        40.688
C28  21818451.753 8 113614408.45808        50.250                                                    21818450.288 7  92321011.75307        43.781
C32  23882626.310 7 124363112.33207        45.906                                                    23882626.346 6 101055212.60006        39.281
C33  25885811.602 5                        32.219
E07  26029353.954 7 136785201.77907        42.906    26029348.560 5 111026910.26405        31.250    26029352.281 5 102144777.52805        35.250    26029355.031 7 104809458.00107        44.781    26029351.919 7 103477108.33607        44.469
E13  25816383.772 6 135666050.85606        40.625    25816379.641 5 110118515.86505        30.156    25816381.237 6 101309071.10706        36.156    25816384.179 7 103951926.56407        44.938    25816381.006 7 102630497.90807        44.750
E18  19558370.294 7 102779939.19007        47.156    19558364.628 6  83425240.69006        36.000    19558366.602 6  76751238.72606        41.156    19558370.226 8  78753454.14208        50.344    19558366.746 8  77752345.51408        50.062
E19  24846435.272 6 130568911.47406        40.594                                                    24846431.208 5  97502730.86105        33.312    24846434.658 7 100046299.75007        43.125
E26  23035432.098 7 121052035.94807        47.969    23035427.803 6  98256487.32506        38.281    23035430.367 6  90396006.48106        41.969    23035433.566 8  92754176.75908        51.250    23035430.501 8  91575086.19608        51.000
E33  25824925.785 6 135710924.26606        40.250                                                    25824921.845 5 101342549.83305        34.344    25824925.830 7 103986283.61907        45.656    25824921.868 7 102664406.79707        44.812
G10  22811074.713 7 119873002.59407        42.188    22811074.052 7        42.844    22811074.424 7  93407542.01907        42.844    22811074.937 7  93407551.02907        42.125    22811068.407 6  89515542.19106        37.500
G15  22635374.183 7 118949706.31807        42.219    22635373.759 6        39.469    22635372.722 6  92688080.48006        39.469    22635372.664 6  92688087.49106        38.906
G18  21171911.424 7 111259148.28807        45.594    21171911.035 6        37.938    21171909.395 6  86695437.03206        37.938    21171910.402 7  86695442.03607        47.125    21171909.654 7  83083133.93307        42.188
G20  21885189.293 7 115007464.00907        44.062    21885187.992 5        32.000    21885186.931 5  89616197.25105        32.000
G23  21976261.989 7 115486051.12007        43.812    21976261.609 5        33.188    21976260.373 5  89989128.92405        33.188    21976260.989 7  89989128.92907        44.375    21976260.380 6  86239582.12106        39.031
G24  22549681.664 6 118499385.13806        40.125    22549681.244 6        40.562    22549682.343 6  92337181.46306        40.562    22549682.722 7  92337172.47307        42.188    22549678.058 6  88489776.02606        37.406
G25                                                                                                                                  25093540.763 4                        25.281
G26                                                                                                                                  25252126.100 3                        19.406
G29  21405548.604 7 112486926.27607        46.656    21405547.974 8        50.969    21405547.143 8  87652141.06408        50.969    21405547.138 7  87652140.06907        46.000
G32  22456487.451 7 118009646.78407        43.781    22456487.018 7        45.031    22456487.490 7  91955568.47907        45.031    22456488.656 7  91955565.48707        42.875    22456481.694 6  88124066.98206        36.938
I01  41831113.953 7 164154339.53007        43.500
I02  37756225.581 6 148163640.74606        38.688
I03  35942219.184 7 141045064.52807        46.281
I04  38734377.418 6 152002041.95606        38.438
I05  36965113.691 6 145059080.63206        41.562
I06  38148631.944 6 149703535.85206        38.781
I07  43522010.240 6 170789721.59506        38.656
J01                                                  42848110.132 5 175455848.98905        30.062
J03  36983956.179 6 194352096.07306        38.562    36983956.646 6 151443235.25406        40.688    36983952.790 5 145133099.48405        34.312
J07  38437073.250 5 201988216.91505        34.750    38437072.981 7 157393404.30507        43.188    38437070.052 6 150835341.41106        37.656
R03  22014007.263 6 117842735.07806        36.719    22014008.037 6 117842714.04106        36.219    22014013.885 7  91655479.26307        42.688    22014013.509 7  91655477.27507        42.844
R04  20105425.370 6 107663632.39006        41.875    20105426.182 6 107663656.39506        41.781    20105431.634 7  83738421.01007        47.438    20105431.049 7  83738421.00407        47.219
R05  22001272.121 6 117609417.27706        36.406    22001272.052 6 117609422.28706        36.938    22001278.122 6  91474013.45106        41.938    22001277.938 6  91474018.44306        41.781
R17  20918422.850 6 111938711.56806        40.094    20918423.361 6 111938717.57206        39.875    20918429.614 7  87063476.31607        45.125    20918429.376 7  87063502.31307        45.156
R18  19369815.381 7 103397398.93607        45.312    19369815.210 7 103397404.95407        45.438    19369821.817 8  80420224.29208        50.281    19369821.589 8  80420234.29308        49.688
R19                                                                                                                                                  21626743.292 6  89979948.50906        41.250
> 2021 01 03 00 01  0.0000000  0 47
C01  40364995.222 5 210191118.36005        30.562    40364992.719 5                        30.219
C02  35828859.159 7 186570334.40907        45.406    35828855.467 8 144268026.89408        50.156    35828854.681 6 151603680.18306        39.812
C03  37044483.798 7 192900355.53107        42.812    37044482.265 7 149162789.18107        46.531    37044479.164 6 156747323.88606        36.375
C05  36461174.013 7 189862916.29607        44.656    36461172.321 8 146814046.09008        48.562    36461170.193 6 154279154.27806        39.469
C06  37189445.138 7 193655216.14907        44.000    37189442.793 7 149746490.74207        46.594    37189438.873 6 157360691.79606        38.469
C08  38134768.037 6 198577823.76006        40.156    38134764.831 7 153552986.18007        44.125    38134760.298 5 161360739.29305        35.031
C09  35927999.619 7 187086539.14407        46.531    35927999.307 8 144667270.59208        50.594    35927993.356 6 152023111.54106        40.375
C10  39671388.944 5 206579406.14505        33.406    39671388.136 6 159740345.63006        36.781    39671381.913 4 167862655.18704        28.812
C13  37103213.388 7 193206253.16207        45.094    37103217.809 7 149399399.62707        45.688    37103211.965 6 156995919.91306        37.250
C16  36941569.070 7 192364463.90107        46.156    36941572.545 7 148748420.93407        47.469    36941566.434 6 156311861.44106        37.594
C23  25809141.650 6 134394983.67406        37.312                                                    25809130.567 5 109206881.28005        31.375
C25  25955896.731 3                        20.688
C27  22514482.910 8 117238831.64208        49.062                                                    22514480.793 6  95266140.23006        40.625
C28  21823922.640 8 113642896.33008        50.406                                                    21823921.033 7  92344160.47407        43.969
C32  23879434.513 7 124346491.44307        46.219                                                    23879434.345 6 101041706.77006        38.625
C33  25898789.809 5 134861802.30915        33.312
E07  26043204.580 7 136857987.94307        42.812    26043199.057 5 111085989.95305        30.938    26043202.893 5 102199130.85005        34.969    26043205.843 7 104865229.21607        44.844    26043202.728 7 103532170.60107        44.406
E13  25824369.405 6 135708015.44606        41.250    25824365.501 5 110152578.03005        30.781    25824366.209 6 101340408.31306        36.031    25824370.087 7 103984081.26407        45.219    25824366.620 7 102662243.86307        44.969
E18  19554432.609 7 102759245.70407        47.094    19554426.634 5  83408444.03805        35.531    19554428.615 6  76735785.81206        40.781    19554432.137 8  78737598.09308        50.250    19554428.932 8  77736691.02708        49.906
E19  24838185.969 6 130525561.47606        40.594                                                    24838182.211 5  97470359.09505        33.219    24838185.209 7 100013083.50907        43.000
E26  23031192.894 7 121029759.41207        47.750    23031188.915 6  98238405.71806        38.125    23031191.280 6  90379371.39906        41.906    23031194.431 8  92737107.72708        51.125    23031191.446 8  91558234.13908        50.875
E33  25811792.383 6 135641907.39006        40.688                                                    25811788.500 5 101291011.25405        34.406    25811792.511 7 103933400.56507        45.844    25811788.492 7 102612195.98007        44.906
G10  22809503.670 7 119864749.55907        43.250    22809503.004 7        43.125    22809503.859 7  93401111.08507        43.125    22809504.320 7  93401120.09107        42.750    22809498.019 6  89509379.23006        37.125
G15  22653889.480 7 119047004.39707        42.219    22653889.065 6        39.812    22653887.974 6  92763897.16206        39.812    22653887.952 6  92763904.16406        39.062
G18  21164253.078 7 111218903.24907        45.219    21164252.698 6        38.094    21164251.033 6  86664077.26506        38.094    21164252.168 7  86664082.26307        47.156    21164251.206 7  83053080.82607        42.312
G20  21885918.895 7 115011297.09107        44.469    21885917.581 5        32.031    21885916.010 5  89619184.07005        32.031
G23  21979280.041 7 115501910.74007        44.281    21979279.652 5        34.000    21979278.560 5  90001487.06505        34.000    21979278.953 7  90001487.07007        44.719    21979278.073 6  86251425.35806        39.125
G24  22546779.014 6 118484129.34006        40.688    22546778.585 6        40.500    22546779.229 6  92325293.82106        40.500    22546779.739 6  92325284.82506        41.812    22546775.063 6  88478383.67906        37.312
G25                                                                                                                                  25099679.955 3                        23.000
G29  21420368.806 7 112564806.93707        46.781    21420368.176 8        50.906    21420367.136 8  87712827.30008        50.906    21420367.377 7  87712826.30807        45.312
G32  22441164.980 7 117929124.13607        44.906    22441164.551 7        45.750    22441164.597 7  91892823.56507        45.750    22441165.736 7  91892820.57307        43.281    22441158.966 6  88063936.45606        36.875
I01  41846679.842 7 164215423.11607        43.719
I02  37758019.615 6 148170679.91406        39.438
I03  35942152.721 7 141044803.75107        46.469
I04  38732812.774 6 151995902.06306        38.531
I05  36964929.432 6 145058356.95706        41.781
I06  38148758.526 6 149704033.93906        39.031
I07  43518617.916 6 170776410.29006        38.812
J01                                                  42847871.503 4 175454873.23304        29.438
J03  36983845.845 6 194351516.44606        38.656    36983846.024 6 151442783.59806        41.312    36983842.402 5 145132666.65705        34.562
J07  38437061.725 5 201988153.31205        34.250    38437060.763 7 157393354.75407        43.406    38437057.936 6 150835293.91306        37.844
R03  22032222.209 6 117940245.82106        36.375    22032223.615 6 117940224.78606        36.000    22032229.691 7  91731320.95607        42.438    22032229.154 7  91731318.96807        42.500
R04  20111915.036 6 107698383.88206        41.188    20111915.381 6 107698407.87906        41.469    20111921.261 7  83765449.94707        47.250    20111920.509 7  83765449.94707        47.188
R05  21991295.624 6 117556093.34106        37.219    21991296.517 6 117556098.33306        37.188    21991301.858 6  91432539.26306        41.312    21991302.077 6  91432544.24806        40.750
R17  20933058.860 6 112017036.73906        39.750    20933060.195 6 112017042.72106        39.969    20933065.889 7  87124395.86707        44.344    20933066.039 7  87124421.87307        44.312
R18  19364371.873 7 103368341.27007        45.031    19364371.650 7 103368347.28307        45.250    19364377.989 8  80397623.88108        49.719    19364378.038 8  80397633.88508        49.062
R19                                                                                                                                                  21605995.828 6  89893622.96706        40.500
> 2021 01 03 00 01 30.0000000  0 48
C01  40365021.903 5                        31.344    40365020.224 5                        30.562
C02  35828842.072 7 186570244.70307        45.500    35828838.510 8 144267957.52908        50.344    35828837.527 6 151603607.29506        39.812
C03  37044599.782 7 192900960.57607        42.938    37044598.468 7 149163257.05807        46.656    37044595.368 6 156747815.52106        36.656
C05  36461158.863 7 189862836.86607        44.719    36461156.880 8 146813984.66308        48.688    36461154.975 6 154279089.71906        39.594
C06  37191357.836 7 193665176.00507        44.219    37191355.301 7 149754192.34407        46.688    37191351.530 6 157368785.00306        38.625
C08  38129926.862 6 198552616.66806        40.156    38129924.709 7 153533494.44807        44.531    38129919.721 5 161340256.45705        34.938
C09  35926496.727 7 187078715.19007        46.469    35926496.768 8 144661220.61808        50.812    35926490.834 6 152016753.93806        40.188
C10  39675161.241 5 206599051.94305        33.250    39675161.044 6 159755537.03006        36.594    39675155.285 4 167878619.07704        28.438
C13  37098067.889 7 193179461.16707        45.250    37098072.609 7 149378682.35207        45.844    37098067.010 6 156974149.20206        37.562
C16  36943208.562 7 192373001.45007        46.500    36943212.206 7 148755022.71107        47.812    36943206.015 6 156318798.89706        37.688
C23  25801392.264 6 134354635.26806        38.094                                                    25801382.525 5 109174094.92605        32.656
C25  25949938.495 4                        28.969
C27  22503141.613 8 117179775.67608        49.250                                                    22503139.617 6  95218152.41106        40.719
C28  21829480.464 8 113671836.70608        50.688                                                    21829478.703 7  92367676.89907        44.094
C32  23876290.215 7 124330116.02507        45.531                                                    23876289.574 6 101028400.38106        38.750
C33  25911741.937 5 134929243.27505        31.875
E07  26057067.383 7 136930836.76507        42.438    26057061.677 5 111145120.48205        31.000    26057065.518 5 102253530.91805        34.156    26057068.565 7 104921048.44807        45.344    26057065.446 7 103587280.25707        44.531
E13  25832408.965 6 135750262.51106        41.812    25832404.986 5 110186869.47605        30.094    25832405.376 5 101371956.43205        35.812    25832409.380 7 104016452.37807        45.656    25832405.934 7 102694203.48307        44.969
E18  19550733.428 7 102739807.53207        47.406    19550727.670 6  83392666.29806        36.000    19550729.587 6  76721270.28406        40.188    19550733.099 8  78722703.91408        50.375    19550730.057 8  77721986.17608        49.812
E19  24829994.885 6 130482516.74706        40.219                                                    24829991.109 5  97438215.28905        32.812    24829994.329 7  99980101.18407        43.594
E26  23027001.733 7 121007733.83007        47.719    23026997.505 6  98220527.82406        37.969    23027000.090 6  90362923.71906        41.406    23027003.191 8  92720230.97708        51.594    23027000.112 8  91541571.92608        50.938
E33  25798660.949 7 135572901.97407        42.000                                                    25798657.068 5 101239481.25205        34.281    25798660.817 7 103880526.28607        45.844    25798657.156 7 102559993.83807        44.781
G10  22807943.407 6 119856551.80406        41.969    22807942.737 7        42.094    22807944.331 7  93394723.22607        42.094    22807944.174 7  93394732.23707        42.938    22807938.018 6  89503257.53806        36.906
G15  22672441.615 6 119144494.94906        41.031    22672441.191 6        38.750    22672440.011 6  92839863.82306        38.750    22672440.060 6  92839870.83206        39.000
G18  21156628.645 7 111178836.59107        45.656    21156628.265 6        38.062    21156627.072 6  86632856.49206        38.062    21156627.538 7  86632861.49407        47.812    21156626.840 7  83023160.91407        42.188
G20  21886643.386 7 115015104.68007        44.562    21886642.081 5        31.750    21886640.077 5  89622151.02705        31.750
G23  21982297.359 7 115517766.61907        43.594    21982296.975 5        34.031    21982296.216 5  90013842.28105        34.031    21982296.274 7  90013842.28607        45.406    21982295.189 6  86263265.77206        39.062
G24  22543952.623 6 118469275.87306        40.719    22543952.167 6        40.219    22543952.572 6  92313719.69806        40.219    22543952.850 6  92313710.71906        41.500    22543948.596 6  88467291.81406        37.719
G25  25105761.658 3                        21.031                                                                                    25105764.850 3                        20.875
G26                                                                                                                                  25260478.324 3                        19.750
G29  21435261.678 7 112643068.96307        46.781    21435261.048 8        50.531    21435259.533 8  87773810.69808        50.531    21435260.319 7  87773809.70407        45.031
G32  22425905.600 7 117848936.05507        44.188    22425905.171 7        44.906    22425905.367 7  91830339.34507        44.906    22425906.121 7  91830336.35407        43.000    22425900.225 6  88004055.74906        37.281
I01  41862240.498 7 164276485.99807        43.688
I02  37759802.618 6 148177678.45506        39.000
I03  35942086.849 7 141044545.04807        46.625
I04  38731237.560 6 151989720.78106        38.844
I05  36964741.045 6 145057618.08206        41.812
I06  38148885.409 6 149704530.86506        39.188
I07  43515225.952 6 170763099.37706        38.844
J01                                                  42847612.133 4 175453818.42004        27.938
J03  36983760.150 6 194351066.05906        38.844    36983760.787 6 151442432.65006        41.344    36983756.882 5 145132330.30805        34.125
J07  38437049.432 5 201988089.72305        34.469    38437049.016 7 157393305.22107        43.312    38437045.947 6 150835246.43806        37.531
R03  22050436.819 5 118037745.24105        35.438    22050437.472 5 118037724.24705        35.094    22050443.383 6  91807153.85006        41.906    22050442.509 7  91807151.85307        42.156
R04  20118485.938 6 107733574.37006        41.312    20118486.988 6 107733598.35606        41.500    20118492.426 7  83792820.31207        46.719    20118492.158 7  83792820.30707        46.875
R05  21981412.234 6 117503267.40906        37.000    21981414.096 6 117503272.41706        37.062    21981419.651 6  91391452.42806        41.344    21981420.040 6  91391457.41506        41.375
R17  20947804.051 6 112095940.22506        39.719    20947804.944 6 112095946.22606        39.562    20947810.911 7  87185765.27807        44.562    20947810.676 7  87185791.27507        44.219
R18  19359055.890 7 103339964.17507        46.062    19359056.181 7 103339970.18307        45.688    19359062.024 8  80375552.80208        49.594    19359062.031 8  80375562.80408        49.062
R19                                                                                                                                                  21585285.597 6  89807455.69506        40.250
> 2021 01 03 00 02  0.0000000  0 48
C01  40365048.058 5                        31.531    40365046.343 5                        30.281
C02  35828824.803 7 186570153.21707        45.500    35828820.893 8 144267886.78708        50.344    35828819.959 6 151603532.95806        39.719
C03  37044715.951 7 192901563.51207        42.812    37044714.399 7 149163723.27507        46.594    37044711.079 6 156748305.46906        36.656
C05  36461143.494 7 189862756.44407        44.719    36461141.372 8 146813922.47908        48.594    36461139.352 6 154279024.36906        39.594
C06  37193293.181 7 193675254.63107        44.156    37193291.124 7 149761985.77707        46.812    37193286.878 6 157376974.72606        38.688
C08  38125094.554 6 198527451.87506        39.312    38125091.880 7 153514035.45107        44.219    38125087.285 5 161319808.02105        34.938
C09  35925021.958 7 187071037.27007        46.250    35925022.240 8 144655283.57008        50.562    35925016.347 6 152010514.99906        40.281
C10  39678908.673 5 206618564.38605        33.094    39678907.569 6 159770625.29006        36.906    39678901.344 4 167894474.51004        28.000
C13  37092921.115 7 193152659.82307        45.188    37092925.633 7 149357957.84307        45.969    37092920.180 6 156952370.91806        37.094
C16  36944874.338 7 192381673.43807        46.438    36944877.356 7 148761728.44207        47.719    36944871.320 6 156325845.58606        37.719
C23  25793604.485 6 134314086.17006        37.812                                                    25793594.995 5 109141145.44905        32.281
C25  25943974.039 5                        31.250
C27  22491864.518 8 117121051.50408        49.500                                                    22491862.140 6  95170434.20906        40.719
C28  21835124.421 8 113701227.19208        50.594                                                    21835122.933 7  92391559.09007        43.906
C32  23873192.123 7 124313983.01007        45.656                                                    23873191.425 6 101015290.99006        38.531
C33  25924665.914 5 134996544.99505        30.750
E07  26070941.184 7 137003744.66207        42.156    26070935.332 5 111204298.95905        31.125    26070939.330 5 102307975.13805        34.875    26070942.612 7 104976912.94207        45.312    26070939.312 7 103642434.61507        44.781
E13  25840501.468 6 135792790.01306        41.969    25840497.750 5 110221388.58205        30.406    25840498.687 6 101403713.98806        36.562    25840501.623 7 104049038.40207        45.094    25840498.739 7 102726375.27307        44.938
E18  19547273.067 7 102721622.57607        47.938    19547266.941 6  83377905.78106        36.719    19547269.425 6  76707690.61206        40.750    19547272.600 8  78708769.99008        50.281    19547269.623 8  77708229.37608        50.000
E19  24821861.672 6 130439775.67606        40.719                                                    24821856.978 5  97406298.26505        33.469    24821860.822 7  99947351.53307        43.562
E26  23022857.985 8 120985958.78608        48.031    23022853.655 6  98202853.25106        38.031    23022856.363 6  90346663.13806        41.719    23022859.530 8  92703546.19308        51.500    23022856.425 8  91525099.24008        51.031
E33  25785531.814 6 135503907.73006        41.906                                                    25785527.795 5 101187959.54905        35.125    25785531.360 7 103827660.56407        45.406    25785528.074 7 102507800.13007        44.844
G10  22806394.072 6 119848405.90106        41.219    22806393.411 7        42.000    22806394.176 7  93388375.76607        42.000    22806394.461 7  93388384.77207        42.469    22806387.858 6  89497174.54706        37.188
G15  22691029.258 6 119242173.18706        40.125    22691028.811 6        38.406    22691027.794 6  92915976.72706        38.406    22691027.902 6  92915983.73306        38.969
G18  21149038.201 7 111138948.61407        45.562    21149037.821 6        38.219    21149036.605 6  86601774.94806        38.219    21149037.195 7  86601779.95007        47.438    21149036.331 7  82993374.44207        42.062
G20  21887362.495 7 115018883.41207        44.406    21887361.199 5        32.531    21887359.105 5  89625095.49705        32.531
G23  21985313.340 7 115533615.58107        43.594    21985312.960 5        33.906    21985311.887 5  90026192.11305        33.906    21985312.263 7  90026192.12707        44.312    21985311.547 6  86275101.02006        39.000
G24  22541202.536 6 118454825.52406        40.781    22541202.080 6        41.000    22541202.725 6  92302459.68006        41.000    22541203.274 7  92302450.67607        42.031    22541198.544 6  88456500.95906        37.656
G25  25111782.752 3                        20.094                                                                                    25111793.555 3                        22.562
G26                                                                                                                                  25264667.264 3                        18.875
G29  21450226.008 7 112721707.75807        46.625    21450225.369 8        50.656    21450223.813 8  87835087.67908        50.656    21450224.448 7  87835086.68007        45.000
G32  22410709.925 7 117769082.51807        44.125    22410709.505 7        45.531    22410709.720 7  91768115.80707        45.531    22410710.493 7  91768112.82107        43.094    22410704.196 6  87944424.85006        37.062
I01  41877795.322 7 164337526.59707        43.719
I02  37761575.551 6 148184634.29806        39.531
I03  35942021.071 7 141044286.98307        46.469
I04  38729651.671 6 151983496.81306        38.531
I05  36964548.310 6 145056862.54006        41.938
I06  38149011.245 6 149705025.13006        39.188
I07  43511833.681 6 170749787.41606        38.719
J01                                                  42847337.093 4 175452682.76804        27.750
J03  36983698.855 6 194350742.80706        38.938    36983699.673 6 151442180.78006        41.281    36983695.389 5 145132088.92505        34.438
J07  38437036.992 5 201988024.21805        34.469    38437036.326 7 157393254.18707        42.781    38437033.338 6 150835197.52806        37.875
R03  22068647.701 5 118135228.21505        35.406    22068648.325 5 118135207.20005        35.031    22068654.012 7  91882973.93407        42.000    22068653.327 7  91882971.94907        42.250
R04  20125138.609 6 107769198.22606        41.688    20125139.424 6 107769222.21706        41.469    20125144.871 7  83820527.75907        46.688    20125144.708 7  83820527.76007        46.531
R05  21971624.333 6 117450937.77206        37.094    21971624.944 6 117450942.78506        37.438    21971630.039 6  91350751.59606        41.188    21971631.096 6  91350756.58006        40.750
R17  20962655.717 6 112175418.27706        39.812    20962657.366 6 112175424.26106        39.219    20962663.449 7  87247581.53107        44.656    20962663.687 7  87247607.53107        44.094
R18  19353867.853 7 103312268.89007        46.000    19353867.855 7 103312274.89707        45.844    19353873.917 8  80354012.01008        50.000    19353874.041 8  80354022.01808        49.469
R19                                                                                                                                                  21564613.213 6  89721447.86606        40.062
> 2021 01 03 00 02 30.0000000  0 46
C01  40365076.525 5 210191536.41905        31.250    40365072.806 5                        30.438
C02  35828807.583 7 186570066.08207        45.312    35828803.995 8 144267819.40808        50.219    35828803.146 6 151603462.16606        39.812
C03  37044832.096 7 192902170.49207        42.844    37044830.701 7 149164192.62807        46.469    37044827.571 6 156748798.69806        36.375
C05  36461129.127 7 189862681.08907        44.594    36461127.005 8 146813864.20608        48.562    36461124.949 6 154278963.14006        39.188
C06  37195252.488 7 193685457.86907        44.250    37195250.307 7 149769875.56707        46.438    37195246.287 6 157385265.69706        38.531
C08  38120271.692 6 198502336.41806        39.906    38120268.446 7 153494614.57807        44.094    38120263.760 5 161299399.62905        34.188
C09  35923576.820 7 187063511.58407        46.188    35923576.896 8 144649464.23008        50.500    35923571.162 6 152004399.77206        40.125
C10  39682630.651 5 206637949.49105        33.281    39682630.361 6 159785615.14106        36.188    39682624.029 4 167910226.57704        27.219
C13  37087773.021 7 193125856.07607        45.031    37087778.475 7 149337231.48807        46.188    37087772.590 6 156930590.67306        37.062
C16  36946566.243 7 192390485.68807        46.469    36946569.735 7 148768542.63407        47.750    36946563.453 6 156333006.27006        37.375
C23  25785781.035 6 134273343.93306        37.344                                                    25785771.083 5 109108039.03505        32.344
C25  25938023.955 5                        33.062
C27  22480652.128 8 117062667.26708        49.781                                                    22480650.431 6  95122992.22306        40.906
C28  21840856.216 8 113731073.48208        50.000                                                    21840854.585 7  92415811.63907        43.719
C32  23870141.109 7 124298097.40007        45.906                                                    23870140.646 6 101002382.65106        38.594
C33  25937563.809 5 135063712.81705        33.500
E07  26084827.340 6 137076716.13006        41.469    26084821.683 5 111263529.05705        30.875    26084825.069 5 102362466.80805        34.812    26084828.717 7 105032826.13007        45.250    26084825.288 7 103697637.04707        44.594
E13  25848648.788 6 135835604.05406        41.062    25848645.236 5 110256140.24105        30.062    25848645.829 6 101435685.50306        36.375    25848649.098 7 104081843.96307        45.000    25848645.964 7 102758763.81107        44.812
E18  19544052.330 7 102704696.84107        47.125    19544046.448 6  83364167.36106        36.594    19544048.367 6  76695051.25306        40.750    19544051.872 8  78695800.91408        50.375    19544048.675 8  77695425.16508        50.031
E19  24813787.068 6 130397344.82306        40.625                                                    24813782.890 5  97374612.88905        32.750    24813786.821 7  99914839.57907        43.750
E26  23018763.469 7 120964441.98007        47.594    23018759.243 6  98185388.31306        37.812    23018761.769 6  90330595.39206        41.594    23018765.010 8  92687059.29008        51.281    23018761.907 8  91508821.91708        50.875
E33  25772406.141 6 135434932.48606        41.406                                                    25772402.153 5 101136452.07605        35.094    25772405.959 7 103774809.39607        45.188    25772402.436 7 102455620.80607        44.625
G10  22804854.563 7 119840316.51607        42.281    22804853.893 7        42.250    22804855.280 7  93382072.35807        42.250    22804855.136 7  93382081.35407        42.562    22804848.685 6  89491133.77206        37.000
G15  22709653.173 6 119340042.70806        39.812    22709652.722 6        37.375    22709651.727 6  92992238.68006        37.375    22709651.658 6  92992245.69306        37.969
G18  21141483.383 7 111099247.83707        45.688    21141482.999 6        38.125    21141481.705 6  86570839.27006        38.125    21141482.168 7  86570844.26807        47.375    21141481.518 7  82963727.74307        42.188
G20  21888076.929 7 115022639.50707        44.625    21888075.628 5        32.344    21888074.252 5  89628022.31305        32.344
G23  21988328.906 7 115549462.63407        44.156    21988328.517 5        33.094    21988326.821 5  90038540.45805        33.094    21988327.653 7  90038540.46907        43.812    21988326.936 6  86286934.84506        39.250
G24  22538530.676 6 118440786.53406        39.625    22538530.189 6        40.250    22538531.574 6  92291520.20106        40.250    22538532.133 7  92291511.20207        42.219    22538527.308 6  88446017.30006        37.281
G25                                                                                                                                  25117755.816 3                        23.938
G29  21465262.755 7 112800726.84807        46.719    21465262.121 8        50.156    21465260.341 8  87896660.99808        50.156    21465261.408 7  87896660.00307        44.344
G32  22395579.036 7 117689571.65607        44.062    22395578.621 7        44.969    22395579.462 7  91706159.30407        44.969    22395580.187 7  91706156.31107        43.219    22395573.762 6  87885049.87906        37.438
I01  41893345.758 7 164398549.47307        43.812
I02  37763338.785 6 148191553.05106        39.125
I03  35941956.774 7 141044034.14707        46.562
I04  38728055.420 6 151977234.78406        38.281
I05  36964352.570 6 145056095.11106        41.875
I06  38149137.111 6 149705521.38706        38.719
I07  43508442.234 6 170736479.01106        38.844
J03  36983662.899 6 194350552.75706        39.188    36983663.400 7 151442032.68207        42.125    36983659.321 5 145131947.01505        35.000
J07  38437025.161 5 201987963.12805        34.562    38437024.834 7 157393206.56207        43.406    38437021.940 6 150835151.88606        37.688
R03  22086855.698 5 118232697.87405        35.094    22086856.156 5 118232676.87905        35.156    22086861.552 6  91958783.68306        41.688    22086861.154 6  91958781.66506        41.562
R04  20131874.147 6 107805258.73806        41.625    20131873.866 6 107805282.74106        41.281    20131879.215 7  83848574.85807        46.469    20131879.353 7  83848574.83707        46.500
R05  21961928.249 6 117399111.07406        37.625    21961929.500 6 117399116.06406        37.688    21961934.890 6  91310441.94506        41.344    21961934.859 6  91310446.94506        41.281
R17  20977618.169 6 112255474.73306        39.344    20977618.323 6 112255480.72406        39.062    20977623.740 7  87309847.66807        44.562    20977623.742 7  87309873.65107        44.156
R18  19348808.348 7 103285263.82507        46.281    19348808.808 7 103285269.82007        45.656    19348815.048 8  80333008.09008        49.750    19348815.175 8  80333018.08208        49.625
R19                                                                                                                                                  21543981.787 6  89635608.17506        39.594
> 2021 01 03 00 03  0.0000000  0 47
C01  40365100.317 5                        30.750    40365099.139 5                        31.062
C02  35828790.000 7 186569973.75807        45.219    35828786.237 8 144267748.02008        50.188    35828785.384 6 151603387.14606        40.000
C03  37044947.694 7 192902772.03607        42.781    37044946.336 7 149164657.78607        46.375    37044943.183 6 156749287.49006        36.594
C05  36461113.923 7 189862601.43507        44.750    36461111.948 8 146813802.60508        48.562    36461109.830 6 154278898.40806        39.812
C06  37197233.810 7 193695775.71707        44.156    37197231.870 7 149777853.98907        46.438    37197228.038 6 157393649.77606        38.875
C08  38115456.452 6 198477261.34806        39.844    38115453.375 7 153475224.95407        43.750    38115448.381 5 161279024.10305        34.656
C09  35922158.934 7 187056128.62007        45.875    35922159.132 8 144643755.25808        50.406    35922153.179 6 151998400.50906        40.312
C10  39686327.384 5 206657197.22305        33.062    39686325.606 5 159800498.70605        35.656    39686320.683 4 167925866.87204        28.000
C13  37082623.915 7 193099041.09307        44.625    37082628.843 7 149316496.43607        46.094    37082623.221 6 156908801.30106        37.594
C16  36948284.005 7 192399428.36407        46.438    36948287.143 7 148775457.69107        47.625    36948280.517 6 156340272.94406        37.312
C23  25777918.294 6 134232400.47606        38.156                                                    25777908.313 5 109074769.14805        32.438
C25  25932084.825 5 135035171.40415        33.969
C27  22469504.265 8 117004615.54108        50.000                                                    22469502.118 6  95075820.44806        41.188
C28  21846673.769 8 113761365.59908        50.469                                                    21846671.731 7  92440426.47207        44.094
C32  23867136.003 7 124282448.59007        45.875                                                    23867135.726 6 100989666.73206        38.719
C33  25950436.354 5 135130736.46405        31.781
E07  26098723.207 6 137149739.94106        41.719    26098717.462 5 111322801.64505        30.750    26098721.050 5 102416997.56005        35.125    26098724.871 7 105088779.43907        45.719    26098721.346 7 103752879.07807        44.906
E13  25856848.871 6 135878694.95106        41.906    25856844.783 4 110291116.57704        29.281    25856845.810 5 101467863.78305        35.750    25856849.192 7 104114861.67607        45.312    25856845.939 7 102791361.81007        44.781
E18  19541068.964 7 102689020.42907        47.625    19541063.607 6  83351443.00706        36.031    19541065.134 6  76683344.85306        40.500    19541068.494 8  78683789.13308        50.344    19541065.598 8  77683566.07308        49.844
E19  24805770.003 6 130355214.94406        40.781                                                    24805766.142 5  97343152.24205        33.062    24805769.485 7  99882558.24407        43.688
E26  23014716.678 8 120943175.37508        48.000    23014712.554 6  98168126.46206        38.031    23014714.849 6  90314714.48806        41.469    23014718.110 8  92670764.10008        51.344    23014714.994 8  91492733.87108        50.875
E33  25759282.798 6 135365968.37006        41.406                                                    25759278.817 5 101084952.86905        34.719    25759282.401 7 103721966.75807        45.125    25759278.983 7 102403449.89007        44.531
G10  22803323.998 7 119832272.63007        42.625    22803323.310 7        42.531    22803324.880 7  93375804.39107        42.531    22803324.245 7  93375813.39007        43.000    22803317.847 6  89485126.97606        37.156
G15  22728311.170 6 119438090.82406        40.312    22728310.728 6        37.125    22728309.750 6  93068639.81006        37.125    22728309.604 6  93068646.80506        37.625
G18  21133962.803 7 111059726.93107        45.812    21133962.419 6        38.000    21133960.971 6  86540043.75406        38.000    21133961.740 7  86540048.75307        47.500    21133960.998 7  82934215.37707        42.250
G20  21888785.637 7 115026362.63907        44.562    21888784.332 5        32.469    21888782.860 5  89630923.44705        32.469
G23  21991341.971 7 115565296.98407        44.781    21991341.596 5        33.594    21991340.162 5  90050878.91005        33.594    21991340.696 7  90050878.91007        44.281    21991340.235 6  86298759.19206        39.250
G24  22535936.018 6 118427150.67906        40.438    22535935.518 6        40.656    22535936.944 6  92280894.86206        40.656    22535937.621 7  92280885.86607        42.500    22535932.634 6  88435834.66406        38.031
G25  25123627.582 3                        18.656                                                                                    25123658.181 3                        20.031
G29  21480369.677 7 112880113.83507        46.312    21480369.043 8        49.875    21480367.457 8  87958520.98708        49.875    21480368.275 7  87958519.98307        45.156
G32  22380512.278 7 117610395.77407        44.719    22380511.854 7        45.000    22380512.623 7  91644463.81207        45.000    22380513.836 7  91644460.82807        43.688    22380507.146 6  87825925.02106        37.875
I01  41908889.798 7 164459547.28607        43.812
I02  37765090.504 6 148198426.28506        39.594
I03  35941891.926 7 141043779.44507        46.688
I04  38726448.376 6 151970927.63906        38.531
I05  36964152.648 7 145055308.77507        42.281
I06  38149262.450 6 149706012.51906        38.875
I07  43505050.125 6 170723167.05606        38.906
J01                                                  42846722.267 4 175450175.77004        26.031
J03  36983650.275 6 194350486.13706        38.969    36983650.847 7 151441980.77107        42.188    36983646.991 5 145131897.26205        35.094
J07  38437011.843 5 201987896.75505        34.094    38437012.286 7 157393154.85307        43.281    38437008.980 6 150835102.34206        37.875
R03  22105058.506 6 118330141.43806        36.094    22105059.526 5 118330120.42305        35.344    22105065.236 7  92034573.12207        42.500    22105064.884 7  92034571.13607        42.688
R04  20138686.604 6 107841742.70106        41.094    20138686.556 6 107841766.70006        40.938    20138692.378 7  83876951.26107        46.812    20138691.973 7  83876951.26507        47.094
R05  21952326.770 6 117347777.26906        38.156    21952327.355 6 117347782.27006        37.906    21952331.779 6  91270515.64006        40.906    21952331.961 6  91270520.66106        41.344
R17  20992684.879 6 112336097.53306        39.125    20992684.545 6 112336103.52706        39.125    20992690.637 7  87372554.28707        44.938    20992690.137 7  87372580.29607        44.812
R18  19343876.948 7 103258941.96707        45.250    19343877.326 7 103258947.96807        44.875    19343884.107 8  80312535.51008        49.906    19343883.535 8  80312545.52508        49.812
R19                                                                                                                                                  21523388.763 6  89549932.35806        40.562
> 2021 01 03 00 03 30.0000000  0 48
C01  40365128.018 5                        31.906    40365126.898 5                        30.875
C02  35828772.931 7 186569885.20307        45.938    35828769.440 8 144267679.55008        50.250    35828768.440 6 151603315.20006        40.031
C03  37045064.027 7 192903377.10107        43.219    37045062.354 7 149165125.66307        46.469    37045059.699 6 156749779.15206        36.562
C05  36461099.644 7 189862526.31907        45.219    36461097.276 8 146813744.52308        48.750    36461095.327 6 154278837.37906        39.625
C06  37199238.726 7 193706216.90707        44.438    37199237.028 7 149785927.78407        46.812    37199232.990 6 157402134.12406        38.562
C08  38110650.617 6 198452236.43306        40.406    38110647.689 7 153455874.09807        44.562    38110642.589 5 161258689.31105        34.625
C09  35920770.510 7 187048897.25207        46.469    35920770.577 8 144638163.49608        50.625    35920764.434 6 151992524.42806        40.281
C10  39689999.309 5 206676316.41305        32.344    39689997.972 6 159815282.83406        36.125    39689991.870 4 167941402.78804        28.000
C13  37077473.966 7 193072224.32207        45.375    37077479.191 7 149295760.01507        46.250    37077473.100 6 156887010.47606        37.125
C16  36950028.070 7 192408510.02207        47.188    36950031.307 8 148782480.19308        48.094    36950024.790 6 156347652.51206        37.531
C23  25770018.139 6 134191266.13006        39.438                                                    25770008.981 5 109041344.15405        32.969
C25  25926155.451 5 135004299.53505        31.438
C27  22458421.955 8 116946907.26508        50.312                                                    22458419.783 6  95028927.74306        41.125
C28  21852578.112 8 113792111.99408        51.000                                                    21852576.388 7  92465410.43607        44.000
C32  23864177.813 7 124267044.38607        46.062                                                    23864177.389 6 100977149.52306        39.000
C33  25963280.272 5 135197624.12405        31.094
E07  26112630.476 6 137222823.42506        40.969    26112624.612 5 111382122.63605        30.594    26112628.178 5 102471572.91605        35.688    26112632.371 7 105144778.48107        45.469    26112628.677 7 103808166.26907        45.031
E13  25865102.916 6 135922071.61906        41.031    25865099.064 4 110326324.94304        29.531    25865099.915 5 101500255.44805        35.594    25865103.294 7 104148098.34107        44.750    25865100.248 7 102824175.97307        44.500
E18  19538325.318 7 102674601.94607        46.906    19538319.619 6  83339739.71906        36.188    19538321.836 6  76672577.82806        41.031    19538324.784 8  78672741.22108        50.062    19538321.897 8  77672658.59708        49.938
E19  24797812.143 6 130313395.38706        40.844                                                    24797808.261 5  97311923.38505        33.531    24797811.348 7  99850514.68807        43.438
E26  23010719.284 7 120922169.50007        47.906    23010714.838 6  98151076.24406        38.000    23010717.415 6  90299028.29206        41.812    23010720.895 8  92654668.69208        51.469    23010717.706 8  91476843.06508        51.031
E33  25746163.423 6 135297026.03106        41.062                                                    25746159.307 5 101033469.96205        35.469    25746163.006 7 103669140.81007        44.938    25746159.666 7 102351295.46007        44.625
G10  22801803.508 7 119824281.79107        43.031    22801802.811 7        42.969    22801803.834 7  93369577.77107        42.969    22801803.814 7  93369586.78507        42.875    22801797.228 6  89479159.80006        37.094
G15  22747003.860 6 119536323.62606        40.719    22747003.418 6        36.531    22747002.781 6  93145184.86306        36.531    22747003.382 6  93145191.85606        37.406
G18  21126478.778 7 111020397.23507        45.156    21126478.389 6        38.281    21126477.128 6  86509397.23406        38.281    21126477.564 8  86509402.23308        48.344    21126476.511 6  82904845.78106        41.844
G20  21889489.489 7 115030061.20807        44.969    21889488.179 5        32.875    21889486.371 5  89633805.45005        32.875
G23  21994354.372 7 115581126.47907        43.812    21994354.006 5        33.219    21994352.085 5  90063213.58505        33.219    21994353.127 7  90063213.58307        44.406    21994352.394 6  86310579.92306        38.500
G24  22533420.327 6 118413929.30006        40.656    22533419.813 6        40.844    22533420.555 6  92270592.49406        40.844    22533421.245 6  92270583.47806        41.969    22533416.761 6  88425961.56806        37.938
