     3.03           OBSERVATION DATA    M (MIXED)           RINEX VERSION / TYPE
RTCM2RINEX 1.2.19   NRCan               20210103 00:19:48UTCPGM / RUN BY / DATE
gfzrnx-1.11-7352    FILE MERGE          20210104 002459 UTC COMMENT
 -2218337.8500 -2201205.0600  5543057.5700                  APPROX POSITION XYZ
Topcon GPS -    L1 Phase aligned to CA and L2 aligned to P2 COMMENT
GLONASS- L1 Phase aligned to C1 and L2 aligned to C2        COMMENT
This data is subject to the Open Government Licence- Canada COMMENT
https://open.canada.ca/en/open-government-licence-canada    COMMENT
DBHZ                                                        SIGNAL STRENGTH UNIT
    18                  GPS                                 LEAP SECONDS
     1     1                                                WAVELENGTH FACT L1/2
G L1C                                                       SYS / PHASE SHIFT
G L1W -0.25000                                              SYS / PHASE SHIFT
G L2L  0.25000                                              SYS / PHASE SHIFT
G L2W                                                       SYS / PHASE SHIFT
R L1C                                                       SYS / PHASE SHIFT
R L1P -0.25000                                              SYS / PHASE SHIFT
R L2C                                                       SYS / PHASE SHIFT
R L2P -0.25000                                              SYS / PHASE SHIFT
618-00846           TPS NET-G3A         4.7 Nov,23,2017 p6  REC # / TYPE / VERS
WHIT CACS-GSD 7787017 Whitehorse YT Canada                  MARKER NAME
        0.1000        0.0000        0.0000                  ANTENNA: DELTA H/E/N
40136M001                                                   MARKER NUMBER
ACSOPS              NRCan                                   OBSERVER / AGENCY
 24 R01  1 R02 -4 R03  5 R04  6 R05  1 R06 -4 R07  5 R08  6 GLONASS SLOT / FRQ #
    R09 -2 R10 -7 R11  0 R12 -1 R13 -2 R14 -7 R15  0 R16 -1 GLONASS SLOT / FRQ #
    R17  4 R18 -3 R19  3 R20  2 R21  4 R22 -3 R23  3 R24  2 GLONASS SLOT / FRQ #
 C1C    0.000 C1P    0.000 C2C    0.000 C2P    0.000        GLONASS COD/PHS/BIS
289                 AOAD/M_T        NONE                    ANT # / TYPE
G   16 C1C C1W C2L C2W D1C D1W D2L D2W L1C L1W L2L L2W S1C  SYS / # / OBS TYPES
       S1W S2L S2W                                          SYS / # / OBS TYPES
R   16 C1C C1P C2C C2P D1C D1P D2C D2P L1C L1P L2C L2P S1C  SYS / # / OBS TYPES
       S1P S2C S2P                                          SYS / # / OBS TYPES
    56                                                      # OF SATELLITES
   G01  1012  1012  1012  1012  1012  1012  1012  1012  1012PRN / # OF OBS
        1012  1012  1012  1012  1012  1012  1012            PRN / # OF OBS
   G02  1065  1065        1065  1065  1065        1065  1065PRN / # OF OBS
        1065        1065  1065  1065        1065            PRN / # OF OBS
   G03   979   979   979   979   979   979   979   979   979PRN / # OF OBS
         979   979   979   979   979   979   979            PRN / # OF OBS
   G04   938   938   938   938   938   938   938   938   938PRN / # OF OBS
         938   938   938   938   938   938   938            PRN / # OF OBS
   G05  1051  1050  1051  1050  1051  1050  1051  1050  1051PRN / # OF OBS
        1050  1051  1050  1051  1050  1051  1050            PRN / # OF OBS
   G06  1058  1058  1058  1058  1058  1058  1058  1058  1058PRN / # OF OBS
        1058  1058  1058  1058  1058  1058  1058            PRN / # OF OBS
   G07   990   990   990   990   990   990   990   990   990PRN / # OF OBS
         990   990   990   990   990   990   990            PRN / # OF OBS
   G08  1051  1050  1051  1050  1051  1050  1051  1050  1051PRN / # OF OBS
        1050  1051  1050  1051  1050  1051  1050            PRN / # OF OBS
   G09   962   962   962   962   962   962   962   962   962PRN / # OF OBS
         962   962   962   962   962   962   962            PRN / # OF OBS
   G10  1001  1001  1001  1001  1001  1001  1001  1001  1001PRN / # OF OBS
        1001  1001  1001  1001  1001  1001  1001            PRN / # OF OBS
   G11  1007  1007        1007  1007  1007        1007  1007PRN / # OF OBS
        1007        1007  1007  1007        1007            PRN / # OF OBS
   G12   978   978   978   978   978   978   978   978   978PRN / # OF OBS
         978   978   978   978   978   978   978            PRN / # OF OBS
   G13  1029  1029        1029  1029  1029        1029  1029PRN / # OF OBS
        1029        1029  1029  1029        1029            PRN / # OF OBS
   G14   974   974   974   974   974   974   974   974   974PRN / # OF OBS
         974   974   974   974   974   974   974            PRN / # OF OBS
   G15  1033  1029  1033  1029  1033  1029  1033  1029  1033PRN / # OF OBS
        1029  1033  1029  1033  1029  1033  1029            PRN / # OF OBS
   G16  1011  1011        1011  1011  1011        1011  1011PRN / # OF OBS
        1011        1011  1011  1011        1011            PRN / # OF OBS
   G17  1060  1060  1060  1060  1060  1060  1060  1060  1060PRN / # OF OBS
        1060  1060  1060  1060  1060  1060  1060            PRN / # OF OBS
   G18   966   966   966   966   966   966   966   966   966PRN / # OF OBS
         966   966   966   966   966   966   966            PRN / # OF OBS
   G19  1017  1017        1017  1017  1017        1017  1017PRN / # OF OBS
        1017        1017  1017  1017        1017            PRN / # OF OBS
   G20   985   985         985   985   985         985   985PRN / # OF OBS
         985         985   985   985         985            PRN / # OF OBS
   G21  1053  1053        1053  1053  1053        1053  1053PRN / # OF OBS
        1053        1053  1053  1053        1053            PRN / # OF OBS
   G22   969   969         969   969   969         969   969PRN / # OF OBS
         969         969   969   969         969            PRN / # OF OBS
   G23  1018  1018  1018  1018  1018  1018  1018  1018  1018PRN / # OF OBS
        1018  1018  1018  1018  1018  1018  1018            PRN / # OF OBS
   G24   985   985   985   985   985   985   985   985   985PRN / # OF OBS
         985   985   985   985   985   985   985            PRN / # OF OBS
   G25   998   998   998   998   998   998   998   998   998PRN / # OF OBS
         998   998   998   998   998   998   998            PRN / # OF OBS
   G26  1038  1034  1038  1034  1038  1034  1038  1034  1038PRN / # OF OBS
        1034  1038  1034  1038  1034  1038  1034            PRN / # OF OBS
   G27  1026  1026  1026  1026  1026  1026  1026  1026  1026PRN / # OF OBS
        1026  1026  1026  1026  1026  1026  1026            PRN / # OF OBS
   G28  1016  1016        1016  1016  1016        1016  1016PRN / # OF OBS
        1016        1016  1016  1016        1016            PRN / # OF OBS
   G29   984   984   984   984   984   984   984   984   984PRN / # OF OBS
         984   984   984   984   984   984   984            PRN / # OF OBS
   G30   936   936   936   936   936   936   936   936   936PRN / # OF OBS
         936   936   936   936   936   936   936            PRN / # OF OBS
   G31  1046  1046  1046  1046  1046  1046  1046  1046  1046PRN / # OF OBS
        1046  1046  1046  1046  1046  1046  1046            PRN / # OF OBS
   G32  1031  1031  1031  1031  1031  1031  1031  1031  1031PRN / # OF OBS
        1031  1031  1031  1031  1031  1031  1031            PRN / # OF OBS
   R01  1075  1075  1074  1074  1075  1075  1074  1074  1075PRN / # OF OBS
        1075  1074  1074  1075  1075  1074  1074            PRN / # OF OBS
   R02  1188  1188  1188  1188  1188  1188  1188  1188  1188PRN / # OF OBS
        1188  1188  1188  1188  1188  1188  1188            PRN / # OF OBS
   R03  1179  1179  1179  1179  1179  1179  1179  1179  1179PRN / # OF OBS
        1179  1179  1179  1179  1179  1179  1179            PRN / # OF OBS
   R04  1077  1077  1077  1077  1077  1077  1077  1077  1077PRN / # OF OBS
        1077  1077  1077  1077  1077  1077  1077            PRN / # OF OBS
   R05   970   970   970   970   970   970   970   970   970PRN / # OF OBS
         970   970   970   970   970   970   970            PRN / # OF OBS
   R06   974   974    57    54   974   974    57    54   974PRN / # OF OBS
         974    57    54   974   974    57    54            PRN / # OF OBS
   R07   983   983   983   983   983   983   983   983   983PRN / # OF OBS
         983   983   983   983   983   983   983            PRN / # OF OBS
   R08  1003  1002  1002  1002  1003  1002  1002  1002  1003PRN / # OF OBS
        1002  1002  1002  1003  1002  1002  1002            PRN / # OF OBS
   R09   974   974   974   974   974   974   974   974   974PRN / # OF OBS
         974   974   974   974   974   974   974            PRN / # OF OBS
   R10  1026  1025    64    68  1026  1025    64    68  1026PRN / # OF OBS
        1025    64    68  1026  1025    64    68            PRN / # OF OBS
   R11  1199  1199  1199  1199  1199  1199  1199  1199  1199PRN / # OF OBS
        1199  1199  1199  1199  1199  1199  1199            PRN / # OF OBS
   R12  1200  1200  1200  1200  1200  1200  1200  1200  1200PRN / # OF OBS
        1200  1200  1200  1200  1200  1200  1200            PRN / # OF OBS
   R13   838   838   838   838   838   838   838   838   838PRN / # OF OBS
         838   838   838   838   838   838   838            PRN / # OF OBS
   R14   969   969   969   969   969   969   969   969   969PRN / # OF OBS
         969   969   969   969   969   969   969            PRN / # OF OBS
   R15   973   973   973   973   973   973   973   973   973PRN / # OF OBS
         973   973   973   973   973   973   973            PRN / # OF OBS
   R16   970   970   969   968   970   970   969   968   970PRN / # OF OBS
         970   969   968   970   970   969   968            PRN / # OF OBS
   R17  1016  1016  1016  1016  1016  1016  1016  1016  1016PRN / # OF OBS
        1016  1016  1016  1016  1016  1016  1016            PRN / # OF OBS
   R18   987   987   987   987   987   987   987   987   987PRN / # OF OBS
         987   987   987   987   987   987   987            PRN / # OF OBS
   R19   771   770   770   770   771   770   770   770   771PRN / # OF OBS
         770   770   770   771   770   770   770            PRN / # OF OBS
   R20   897   895   895   895   897   895   895   895   897PRN / # OF OBS
         895   895   895   897   895   895   895            PRN / # OF OBS
   R21  1163  1163  1163  1163  1163  1163  1163  1163  1163PRN / # OF OBS
        1163  1163  1163  1163  1163  1163  1163            PRN / # OF OBS
   R22  1079  1079  1062  1060  1079  1079  1062  1060  1079PRN / # OF OBS
        1079  1062  1060  1079  1079  1062  1060            PRN / # OF OBS
   R23  1033  1033    59    59  1033  1033    59    59  1033PRN / # OF OBS
        1033    59    59  1033  1033    59    59            PRN / # OF OBS
   R24  1027  1027  1027  1027  1027  1027  1027  1027  1027PRN / # OF OBS
        1027  1027  1027  1027  1027  1027  1027            PRN / # OF OBS
    30.000                                                  INTERVAL
  2021     1     3     0     0    0.0000000     GPS         TIME OF FIRST OBS
  2021     1     3    23    59   30.0000000     GPS         TIME OF LAST OBS
                                                            END OF HEADER
> 2021 01 03 00 00 00.0000000  0 21
G05  23829841.452    23829840.895    23829837.465    23829836.889        3106.456        3106.456        2420.615        2420.615   125226654.849   125226654.849    97579219.470    97579198.470          43.250          29.500          39.000          29.250
G07  21915013.578    21915013.060    21915008.565    21915008.270        2439.851        2439.851        1901.183        1901.183   115164198.940   115164198.937    89738343.334    89738346.329          49.250          37.750          42.500          37.750
G08  22283688.149    22283687.521    22283686.801    22283686.236         706.160         706.160         550.255         550.255   117101609.319   117101609.316    91248024.061    91248018.055          45.000          44.750          43.750          45.000
G11  24204043.384    24204042.753                    24204038.128       -2778.785       -2778.785                       -2165.287   127193121.077   127193121.085                    99111517.567          38.250          19.500                          19.250
G13  21077017.074    21077016.396                    21077011.769       -1599.340       -1599.340                       -1246.239   110760496.074   110760496.074                    86306888.378          48.500          38.750                          38.500
G14  20984974.923    20984974.617    20984970.812    20984970.524       -2016.994       -2016.994       -1571.684       -1571.684   110276829.689   110276829.692    85930003.811    85930007.813          49.000          40.750          48.000          41.000
G15  23284222.409    23284221.721    23284218.321    23284217.517       -3097.092       -3097.092       -2413.319       -2413.319   122359422.523   122359422.520    95345026.628    95344997.637          42.000          37.000          37.000          36.750
G20  24731953.751    24731953.240                    24731949.159       -2309.869       -2309.869                       -1799.898   129967302.106   129967302.101                   101273218.843          35.750          15.250                          15.000
G23  25002923.357    25002923.224    25002919.204    25002919.374       -2684.932       -2684.932       -2092.155       -2092.155   131391254.558   131391254.558   102382780.554   102382787.569          36.500          18.000          36.000          18.000
G27  24045969.837    24045968.967    24045966.370    24045966.299        2862.066        2862.066        2230.181        2230.181   126362456.670   126362456.669    98464254.873    98464257.878          39.250          35.500          38.000          35.750
G28  21395264.221    21395263.221                    21395258.432       -2132.237       -2132.237                       -1661.483   112432912.073   112432912.071                    87610068.108          47.500          37.750                          37.750
G30  20496838.947    20496838.126    20496836.717    20496836.073         782.845         782.845         610.009         610.009   107711651.753   107711651.755    83931157.025    83931156.021          52.500          45.750          50.250          45.750
R01  22595866.019    22595865.872    22595862.256    22595863.236        4454.231        4454.231        3464.402        3464.402   120787840.507   120787840.514    93946090.632    93946093.634          44.000          42.750          37.250          37.250
R02  19795006.844    19795006.487    19795002.093    19795002.022         357.798         357.798         278.287         278.287   105629949.117   105629949.116    82156627.425    82156630.422          54.500          53.750          49.500          49.750
R03  22178902.833    22178902.900    22178898.172    22178897.652       -3481.631       -3481.631       -2707.935       -2707.935   118725413.254   118725413.258    92341968.146    92341980.152          47.500          46.750          43.750          43.250
R10  22913005.692    22913005.138                                        3950.337        3950.337                                   122139261.376   122139261.376                                          42.750          42.000
R11  19352001.863    19352001.933    19351995.973    19351996.063        1218.604        1218.604         947.803         947.803   103411261.099   103411261.097    80430992.296    80430991.298          53.750          53.000          53.250          52.500
R12  20382557.349    20382557.716    20382553.655    20382553.314       -2741.838       -2741.838       -2132.541       -2132.541   108880004.456   108880004.457    84684443.439    84684436.436          53.000          52.500          49.250          48.250
R19  23286222.843    23286221.627    23286216.067    23286215.768        3141.327        3141.327        2443.254        2443.254   124565588.783   124565588.795    96884333.009    96884330.014          32.250          31.000          37.000          36.500
R20  21709672.021    21709670.286    21709668.268    21709667.230        -957.637        -957.637        -744.829        -744.829   116091367.795   116091367.794    90293279.584    90293274.584          37.750          36.500          45.500          46.000
R21  23409023.684    23409023.963    23409019.594    23409019.330       -4184.406       -4184.406       -3254.538       -3254.538   125266428.134   125266428.136    97429435.378    97429432.378          43.500          43.000          41.250          40.750
> 2021 01 03 00 00 30.0000000  0 20
G05  23847601.893    23847601.761    23847598.566    23847598.455        3116.135        3116.135        2428.157        2428.157   125319992.650   125319992.655    97651950.220    97651929.224          39.750          26.750          37.500          27.250
G07  21928971.890    21928971.333    21928966.602    21928966.455        2450.126        2450.126        1909.189        1909.189   115237549.786   115237549.784    89795499.836    89795502.827          49.250          38.000          42.500          38.000
G08  22287780.014    22287779.132    22287778.556    22287777.763         727.239         727.239         566.679         566.679   117123110.073   117123110.070    91264777.909    91264771.907          46.500          45.250          43.500          44.750
G11  24188212.209    24188211.520                    24188206.955       -2767.446       -2767.446                       -2156.451   127109926.703   127109926.710                    99046690.811          38.750          18.500                          18.750
G13  21067937.375    21067936.668                    21067932.129       -1581.602       -1581.602                       -1232.417   110712781.477   110712781.477                    86269708.181          50.000          39.250                          39.250
G14  20973505.484    20973505.266    20973501.086    20973500.976       -2001.057       -2001.057       -1559.265       -1559.265   110216557.879   110216557.880    85883038.758    85883042.761          50.000          40.250          48.000          40.500
G15  23266575.748    23266574.818    23266570.772    23266570.770       -3085.163       -3085.163       -2404.023       -2404.023   122266687.982   122266687.973    95272765.974    95272736.976          40.250          36.750          37.000          36.500
G20  24718809.347    24718808.089                    24718804.070       -2295.337       -2295.337                       -1788.574   129898222.834   129898222.838                   101219390.838          35.500          15.000                          15.250
G23  24987633.212    24987632.683    24987628.658    24987629.173       -2672.039       -2672.039       -2082.108       -2082.108   131310903.289   131310903.286   102320169.197   102320176.187          36.750          18.000          35.750          18.250
G27  24062348.369    24062347.724    24062346.481    24062345.644        2876.083        2876.083        2241.104        2241.104   126448531.568   126448531.570    98531326.248    98531329.251          38.250          35.000          38.000          34.750
G28  21383131.140    21383130.032                    21383125.334       -2118.474       -2118.474                       -1650.759   112369151.516   112369151.513                    87560384.566          49.500          38.000                          37.750
G30  20501352.446    20501351.478    20501349.906    20501349.473         798.353         798.353         622.093         622.093   107735369.633   107735369.633    83949638.490    83949637.486          52.750          45.750          50.500          45.500
R01  22620883.081    22620882.828    22620880.697    22620881.230        4461.768        4461.768        3470.264        3470.264   120921581.702   120921581.700    94050111.483    94050114.492          42.000          41.000          36.750          36.250
R02  19797097.432    19797097.172    19797093.043    19797092.708         385.886         385.886         300.133         300.133   105641105.276   105641105.276    82165304.444    82165307.443          54.250          53.750          49.750          49.250
R03  22159436.679    22159436.894    22159431.983    22159431.261       -3465.431       -3465.431       -2695.335       -2695.335   118621206.457   118621206.458    92260918.450    92260930.448          47.750          47.250          44.250          43.500
R10  22935249.678    22935249.976                                        3954.133        3954.133                                   122257830.060   122257830.058                                          43.500          42.750
R11  19358894.930    19358895.039    19358888.669    19358888.936        1237.037        1237.037         962.140         962.140   103448095.231   103448095.230    80459641.075    80459640.078          54.250          53.250          53.500          52.500
R12  20367199.173    20367199.300    20367195.660    20367195.512       -2727.530       -2727.530       -2121.412       -2121.412   108797963.898   108797963.900    84620634.140    84620627.131          54.000          52.500          49.250          48.750
R20  21704377.499    21704376.035    21704373.807    21704372.802        -929.449        -929.449        -722.905        -722.905   116063056.595   116063056.598    90271259.791    90271254.787          37.250          36.500          46.000          46.000
R21  23385590.166    23385590.420    23385586.090    23385585.416       -4175.662       -4175.662       -3247.737       -3247.737   125141026.475   125141026.480    97331900.860    97331897.855          44.250          43.500          42.000          41.250
> 2021 01 03 00 01 00.0000000  0 20
G05  23865419.662    23865418.686    23865415.163    23865414.693        3125.608        3125.608        2435.539        2435.539   125413619.322   125413619.326    97724906.041    97724885.030          41.250          26.250          37.250          26.250
G07  21942988.801    21942988.474    21942984.342    21942983.821        2460.501        2460.501        1917.274        1917.274   115311210.828   115311210.823    89852898.038    89852901.037          48.500          38.250          42.750          38.000
G08  22291991.059    22291990.518    22291989.877    22291989.357         748.259         748.259         583.059         583.059   117145242.221   117145242.218    91282023.755    91282017.751          45.750          45.000          44.000          44.750
G11  24172445.878    24172444.877                    24172440.383       -2756.094       -2756.094                       -2147.605   127027071.895   127027071.895                    98982128.666          39.250          19.250                          19.000
G13  21058959.003    21058958.571                    21058953.930       -1563.730       -1563.730                       -1218.491   110665601.414   110665601.413                    86232944.501          49.750          38.750                          39.000
G14  20962127.591    20962127.536    20962123.786    20962123.294       -1984.994       -1984.994       -1546.749       -1546.749   110156767.391   110156767.395    85836448.762    85836452.765          49.000          40.750          48.250          40.750
G15  23248997.484    23248996.929    23248993.728    23248992.677       -3073.001       -3073.001       -2394.546       -2394.546   122174315.304   122174315.307    95200787.305    95200758.300          41.750          36.750          37.250          36.750
G20  24705747.816    24705746.125                    24705742.436       -2280.536       -2280.536                       -1777.041   129829584.911   129829584.915                   101165906.750          34.250          15.250                          15.250
G23  24972417.925    24972417.104    24972412.945    24972413.812       -2658.601       -2658.601       -2071.637       -2071.637   131230944.679   131230944.679   102257863.770   102257870.784          35.750          18.000          36.000          17.750
G27  24078808.157    24078807.704    24078805.412    24078805.483        2890.337        2890.337        2252.211        2252.211   126535028.819   126535028.822    98598726.737    98598729.734          38.000          34.500          38.000          34.750
G28  21371076.917    21371075.727                    21371071.054       -2104.547       -2104.547                       -1639.907   112305806.098   112305806.096                    87511024.508          48.500          37.750                          38.000
G30  20505954.443    20505953.620    20505952.038    20505951.712         813.910         813.910         634.216         634.216   107759554.420   107759554.420    83968483.781    83968482.777          52.500          45.750          50.500          45.750
R01  22645947.313    22645947.086    22645944.397    22645944.835        4469.729        4469.729        3476.456        3476.456   121055557.213   121055557.215    94154314.689    94154317.686          43.500          42.750          37.500          36.750
R02  19799345.970    19799345.645    19799341.883    19799341.283         414.079         414.079         322.061         322.061   105653105.075   105653105.077    82174637.623    82174640.622          54.750          53.750          49.750          49.000
R03  22140060.407    22140060.874    22140055.783    22140055.414       -3449.184       -3449.184       -2682.699       -2682.699   118517486.645   118517486.655    92180247.494    92180259.499          47.750          47.000          43.750          43.500
R10  22957515.338    22957514.687                                        3957.773        3957.773                                   122376510.054   122376510.054                                          44.500          43.250
R11  19365891.332    19365891.892    19365886.079    19365885.718        1255.451        1255.451         976.462         976.462   103485484.308   103485484.309    80488721.473    80488720.477          54.000          53.500          52.750          52.250
R12  20351921.446    20351921.883    20351918.192    20351917.867       -2713.012       -2713.012       -2110.121       -2110.121   108716355.974   108716355.978    84557161.320    84557154.315          53.250          52.500          48.500          48.250
R20  21699240.237    21699239.922    21699236.993    21699235.558        -901.493        -901.493        -701.161        -701.161   116035589.768   116035589.756    90249896.695    90249891.692          38.250          36.500          45.000          45.500
R21  23362205.993    23362205.758    23362200.997    23362201.257       -4166.618       -4166.618       -3240.703       -3240.703   125015893.616   125015893.611    97234575.374    97234572.367          43.500          42.250          40.750          40.750
> 2021 01 03 00 01 30.0000000  0 20
G05  23883289.108    23883289.666    23883286.178    23883285.858        3135.184        3135.184        2443.000        2443.000   125507532.101   125507532.107    97798084.823    97798063.823          39.750          27.000          37.250          27.000
G07  21957065.163    21957064.564    21957060.026    21957059.948        2470.825        2470.825        1925.318        1925.318   115385181.354   115385181.351    89910537.405    89910540.406          48.250          37.750          42.500          37.750
G08  22296323.318    22296322.239    22296321.988    22296320.798         769.163         769.163         599.348         599.348   117168005.033   117168005.028    91299761.021    91299755.021          43.250          44.500          43.750          44.500
G11  24156744.351    24156743.610                    24156738.530       -2744.781       -2744.781                       -2138.791   126944560.149   126944560.151                    98917833.865          38.750          19.500                          19.250
G13  21050083.225    21050082.789                    21050077.967       -1545.854       -1545.854                       -1204.562   110618958.124   110618958.125                    86196599.093          50.000          38.750                          39.000
G14  20950841.911    20950841.621    20950838.037    20950837.646       -1968.862       -1968.862       -1534.178       -1534.178   110097459.994   110097459.999    85790235.202    85790239.205          49.250          40.500          48.000          40.500
G15  23231488.728    23231488.393    23231484.285    23231484.039       -3060.896       -3060.896       -2385.115       -2385.115   122082307.555   122082307.557    95129092.966    95129063.963          41.250          36.750          37.250          36.500
G20  24692771.612    24692769.542                    24692765.618       -2265.822       -2265.822                       -1765.575   129761390.975   129761390.980                   101112768.619          35.500          16.250                          16.000
G23  24957278.164    24957276.979    24957272.560    24957273.273       -2645.540       -2645.540       -2061.460       -2061.460   131151381.694   131151381.695   102195866.642   102195873.643          36.000          17.500          35.500          17.750
G27  24095348.111    24095347.679    24095346.227    24095345.711        2903.960        2903.960        2262.826        2262.826   126621945.994   126621945.989    98666454.406    98666457.407          37.750          34.250          38.750          34.500
G28  21359101.857    21359100.781                    21359096.121       -2090.667       -2090.667                       -1629.092   112242877.677   112242877.677                    87461989.381          48.500          37.750                          38.000
G30  20510645.466    20510644.772    20510643.134    20510642.738         829.442         829.442         646.318         646.318   107784206.216   107784206.215    83987692.975    83987691.970          52.500          46.000          50.000          46.000
R01  22671053.790    22671053.315    22671050.253    22671050.241        4477.289        4477.289        3482.336        3482.336   121189763.511   121189763.516    94258697.292    94258700.295          43.500          43.000          36.750          36.250
R02  19801753.020    19801752.546    19801748.809    19801748.411         442.110         442.110         343.864         343.864   105665949.067   105665949.066    82184627.390    82184630.388          54.500          53.750          49.500          49.750
R03  22120776.489    22120776.688    22120771.954    22120771.280       -3432.742       -3432.742       -2669.910       -2669.910   118414258.231   118414258.240    92099958.746    92099970.753          48.000          48.000          43.750          43.750
R10  22979799.340    22979798.937                                        3961.538        3961.538                                   122495299.377   122495299.378                                          44.000          43.000
R11  19372991.972    19372992.313    19372986.398    19372986.311        1273.891        1273.891         990.804         990.804   103523427.214   103523427.215    80518232.624    80518231.629          54.500          53.250          53.000          52.250
R12  20336726.322    20336726.521    20336722.917    20336722.514       -2698.553       -2698.553       -2098.874       -2098.874   108635182.971   108635182.974    84494026.766    84494019.762          53.750          53.250          49.000          49.250
R20  21694262.112    21694261.750    21694258.632    21694257.913        -873.322        -873.322        -679.251        -679.251   116008968.944   116008968.948    90229191.634    90229186.632          37.750          36.750          45.500          45.750
R21  23338872.201    23338872.528    23338868.398    23338868.230       -4157.362       -4157.362       -3233.504       -3233.504   124891034.649   124891034.645    97137462.921    97137459.919          43.500          42.500          41.750          41.500
> 2021 01 03 00 02 00.0000000  0 20
G05  23901214.718    23901214.452    23901210.784    23901210.781        3144.335        3144.335        2450.131        2450.131   125601726.776   125601726.780    97871483.226    97871462.230          41.500          27.000          38.500          27.250
G07  21971199.556    21971199.393    21971195.252    21971194.599        2481.057        2481.057        1933.291        1933.291   115459459.879   115459459.876    89968416.774    89968419.771          49.250          37.500          42.250          37.750
G08  22300774.364    22300773.531    22300773.499    22300772.300         790.177         790.177         615.722         615.722   117191397.451   117191397.443    91317988.890    91317982.891          45.750          44.500          43.750          44.000
G11  24141108.111    24141107.294                    24141102.101       -2733.073       -2733.073                       -2129.667   126862394.082   126862394.086                    98853808.425          38.500          19.000                          19.000
G13  21041309.905    21041309.280                    21041304.309       -1527.851       -1527.851                       -1190.533   110572853.072   110572853.074                    86160673.083          50.000          38.750                          39.250
G14  20939648.115    20939647.964    20939644.093    20939643.821       -1952.750       -1952.750       -1521.623       -1521.623   110038636.731   110038636.734    85744398.887    85744402.891          48.750          41.000          48.500          41.000
G15  23214049.604    23214049.685    23214046.714    23214045.697       -3048.587       -3048.587       -2375.522       -2375.522   121990667.158   121990667.159    95057684.888    95057655.880          40.500          36.250          37.250          36.500
G20  24679878.954    24679877.432                    24679873.759       -2250.928       -2250.928                       -1753.970   129693642.370   129693642.366                   101059977.519          35.750          15.500                          15.250
G23  24942212.956    24942212.497    24942208.415    24942208.543       -2632.145       -2632.145       -2051.022       -2051.022   131072216.713   131072216.712   102134179.645   102134186.658          36.250          17.250          35.750          17.500
G27  24111967.447    24111966.440    24111965.597    24111965.378        2918.098        2918.098        2273.842        2273.842   126709280.049   126709280.041    98734506.920    98734509.925          38.000          35.000          39.000          34.750
G28  21347206.330    21347205.620                    21347200.643       -2076.708       -2076.708                       -1618.214   112180367.116   112180367.116                    87413279.859          49.750          38.250                          38.250
G30  20515425.420    20515424.557    20515422.953    20515422.572         844.991         844.991         658.434         658.434   107809324.291   107809324.291    84007265.504    84007264.500          53.250          45.250          50.500          45.250
R01  22696201.200    22696201.106    22696198.661    22696198.929        4484.823        4484.823        3488.196        3488.196   121324196.353   121324196.355    94363256.177    94363259.179          42.750          41.500          36.250          36.000
R02  19804318.316    19804317.673    19804313.463    19804313.406         470.340         470.340         365.820         365.820   105679635.938   105679635.936    82195272.729    82195275.728          54.250          53.750          49.250          49.250
R03  22101585.336    22101585.429    22101580.317    22101580.011       -3416.122       -3416.122       -2656.984       -2656.984   118311524.860   118311524.861    92020055.020    92020067.023          48.000          47.500          44.250          44.000
R10  23002102.996    23002102.932                                        3965.015        3965.015                                   122614196.235   122614196.234                                          43.250          42.250
R11  19380195.726    19380196.085    19380190.127    19380190.013        1292.347        1292.347        1005.159        1005.159   103561922.131   103561922.131    80548173.116    80548172.120          54.750          53.500          53.000          52.750
R12  20321612.357    20321612.455    20321608.502    20321608.523       -2683.979       -2683.979       -2087.539       -2087.539   108554446.117   108554446.122    84431231.445    84431224.441          53.500          52.750          49.000          49.250
R20  21689442.307    21689441.283    21689438.731    21689437.931        -844.938        -844.938        -657.174        -657.174   115983196.029   115983196.033    90209146.037    90209141.035          37.750          36.500          45.250          45.500
R21  23315592.326    23315591.965    23315587.033    23315586.584       -4148.010       -4148.010       -3226.230       -3226.230   124766453.760   124766453.759    97040566.720    97040563.714          44.250          42.750          41.000          40.250
> 2021 01 03 00 02 30.0000000  0 20
G05  23919192.520    23919192.224    23919189.113    23919188.756        3153.754        3153.754        2457.470        2457.470   125696200.820   125696200.825    97945099.297    97945078.312          41.000          27.250          38.500          27.250
G07  21985392.833    21985392.478    21985387.634    21985387.798        2491.208        2491.208        1941.201        1941.201   115534045.034   115534045.031    90026535.074    90026538.074          46.750          37.750          42.250          38.000
G08  22305345.366    22305344.868    22305344.056    22305343.107         811.271         811.271         632.159         632.159   117215418.374   117215418.373    91336706.510    91336700.509          45.250          44.250          43.750          44.250
G11  24125538.930    24125537.800                    24125533.681       -2721.505       -2721.505                       -2120.653   126780576.355   126780576.351                    98790054.427          38.250          19.750                          19.750
G13  21032639.064    21032638.481                    21032633.796       -1509.785       -1509.785                       -1176.456   110527287.897   110527287.902                    86125167.760          50.500          39.500                          39.250
G14  20928546.868    20928546.544    20928542.461    20928542.577       -1936.549       -1936.549       -1508.999       -1508.999   109980298.625   109980298.629    85698940.616    85698944.621          47.750          40.500          48.250          40.500
G15  23196681.717    23196681.487    23196677.067    23196677.335       -3036.092       -3036.092       -2365.786       -2365.786   121899396.709   121899396.707    94986565.076    94986536.074          41.500          36.500          37.250          36.250
G20  24667072.320    24667071.266                    24667067.098       -2235.901       -2235.901                       -1742.261   129626341.810   129626341.816                   101007535.527          36.750          15.250                          15.250
G23  24927224.162    24927223.918    24927221.014    24927220.271       -2618.827       -2618.827       -2040.644       -2040.644   130993452.057   130993452.060   102072804.574   102072811.573          36.750          18.000          36.250          18.000
G27  24128664.671    24128663.968    24128662.139    24128661.873        2931.920        2931.920        2284.614        2284.614   126797027.758   126797027.754    98802881.784    98802884.782          37.750          34.000          38.000          33.750
G28  21335390.654    21335389.723                    21335385.046       -2062.775       -2062.775                       -1607.357   112118275.096   112118275.098                    87364896.471          48.000          38.000                          38.250
G30  20520293.842    20520292.997    20520291.255    20520290.923         860.489         860.489         670.511         670.511   107834907.926   107834907.927    84027200.806    84027199.802          51.500          45.500          50.250          45.500
R01  22721391.388    22721391.297    22721388.824    22721389.754        4492.100        4492.100        3493.855        3493.855   121458851.725   121458851.729    94467988.083    94467991.080          42.750          42.250          37.000          36.500
R02  19807041.028    19807040.701    19807036.696    19807036.272         498.350         498.350         387.605         387.605   105694165.888   105694165.888    82206573.801    82206576.800          54.250          54.000          49.500          49.750
R03  22082487.558    22082487.403    22082481.900    22082481.729       -3399.579       -3399.579       -2644.117       -2644.117   118209290.102   118209290.106    91940539.125    91940551.126          49.250          46.750          44.250          43.750
R10  23024426.864    23024426.599                                        3968.405        3968.405                                   122733198.508   122733198.507                                          42.500          41.500
R11  19387502.758    19387502.959    19387496.599    19387496.794        1310.639        1310.639        1019.387        1019.387   103600967.350   103600967.349    80578541.623    80578540.625          54.500          53.750          53.000          52.500
R12  20306580.282    20306580.713    20306576.590    20306576.253       -2669.348       -2669.348       -2076.159       -2076.159   108474146.758   108474146.760    84368776.399    84368769.395          54.000          53.000          49.750          48.000
R20  21684781.571    21684781.185    21684777.741    21684776.967        -816.704        -816.704        -635.214        -635.214   115958271.463   115958271.466    90189760.272    90189755.269          38.000          36.500          45.000          45.500
R21  23292362.875    23292363.045    23292358.781    23292359.189       -4138.518       -4138.518       -3218.847       -3218.847   124642155.283   124642155.288    96943890.179    96943887.185          43.500          42.250          41.500          41.000
> 2021 01 03 00 03 00.0000000  0 20
G05  23937222.843    23937222.359    23937219.660    23937218.971        3162.948        3162.948        2464.635        2464.635   125790951.532   125790951.534    98018930.996    98018909.991          41.250          25.750          37.000          25.750
G07  21999644.015    21999643.659    21999638.874    21999639.073        2501.490        2501.490        1949.213        1949.213   115608935.999   115608935.996    90084891.665    90084894.665          48.250          37.250          42.250          37.500
G08  22310036.084    22310035.289    22310034.582    22310033.386         832.159         832.159         648.436         648.436   117240067.108   117240067.107    91355913.321    91355907.325          46.000          44.500          43.750          44.500
G11  24110036.686    24110036.015                    24110031.254       -2709.503       -2709.503                       -2111.301   126699110.338   126699110.335                    98726574.494          39.500          20.250                          20.250
G13  21024071.475    21024071.050                    21024066.205       -1491.638       -1491.638                       -1162.315   110482265.123   110482265.124                    86090085.082          49.500          39.250                          39.250
G14  20917537.961    20917537.838    20917534.333    20917533.805       -1920.226       -1920.226       -1496.281       -1496.281   109922447.285   109922447.289    85653861.643    85653865.647          48.000          40.750          48.750          40.500
G15  23179384.070    23179384.083    23179380.873    23179379.879       -3023.758       -3023.758       -2356.175       -2356.175   121808498.920   121808498.921    94915735.648    94915706.653          41.000          36.000          37.000          36.000
G20  24654351.901    24654349.390                    24654345.785       -2220.752       -2220.752                       -1730.456   129559491.845   129559491.841                   100955444.655          35.750          16.000                          16.000
G23  24912312.649    24912312.558    24912308.946    24912309.256       -2605.362       -2605.362       -2030.152       -2030.152   130915090.645   130915090.644   102011743.727   102011750.741          37.250          18.500          36.500          18.500
G27  24145441.608    24145440.986    24145439.708    24145439.310        2945.435        2945.435        2295.144        2295.144   126885186.591   126885186.587    98871576.982    98871579.988          38.250          34.750          39.000          34.500
G28  21323654.876    21323654.078                    21323649.156       -2048.705       -2048.705                       -1596.394   112056603.037   112056603.036                    87316840.316          50.000          38.250                          38.250
G30  20525250.865    20525249.879    20525248.292    20525247.977         876.061         876.061         682.645         682.645   107860957.032   107860957.032    84047498.814    84047497.811          51.750          45.250          50.500          45.500
R01  22746622.753    22746622.597    22746620.670    22746620.642        4499.462        4499.462        3499.582        3499.582   121593726.078   121593726.082    94572890.354    94572893.358          42.750          41.750          36.250          36.000
R02  19809921.892    19809921.226    19809917.267    19809916.704         526.494         526.494         409.495         409.495   105709538.497   105709538.497    82218530.270    82218533.269          54.250          53.250          49.500          50.000
R03  22063482.788    22063482.879    22063477.716    22063477.223       -3382.644       -3382.644       -2630.945       -2630.945   118107558.370   118107558.372    91861414.469    91861426.466          48.500          47.500          45.000          44.500
R10  23046771.471    23046770.776                                        3971.873        3971.873                                   122852304.220   122852304.221                                          42.750          41.750
R11  19394912.254    19394912.512    19394906.427    19394906.436        1329.034        1329.034        1033.693        1033.693   103640561.642   103640561.640    80609337.183    80609336.186          54.250          53.250          53.250          52.750
R12  20291630.630    20291631.103    20291626.354    20291626.393       -2654.608       -2654.608       -2064.695       -2064.695   108394286.807   108394286.807    84306663.111    84306656.109          54.500          53.000          49.500          48.750
R20  21680279.369    21680278.437    21680276.028    21680274.985        -788.249        -788.249        -613.082        -613.082   115934197.111   115934197.106    90171035.792    90171030.787          37.750          36.250          45.250          45.500
R21  23269189.571    23269189.702    23269184.608    23269183.778       -4128.795       -4128.795       -3211.285       -3211.285   124518144.131   124518144.135    96847437.111    96847434.111          44.000          43.750          41.250          40.750
> 2021 01 03 00 03 30.0000000  0 20
G05  23955305.757    23955305.675    23955302.245    23955301.371        3172.061        3172.061        2471.736        2471.736   125885975.311   125885975.311    98092975.505    98092954.494          41.250          26.000          36.500          26.250
G07  22013953.459    22013952.888    22013947.946    22013948.251        2511.508        2511.508        1957.018        1957.018   115684131.337   115684131.335    90143485.434    90143488.431          47.750          37.250          42.250          37.500
G08  22314845.662    22314845.080    22314844.124    22314843.179         852.975         852.975         664.656         664.656   117265342.174   117265342.171    91375608.195    91375602.194          45.500          44.250          43.500          44.000
G11  24094600.701    24094600.271                    24094595.499       -2697.926       -2697.926                       -2102.280   126617998.478   126617998.481                    98663370.514          39.000          19.750                          19.750
G13  21015607.198    21015606.536                    21015601.870       -1473.637       -1473.637                       -1148.289   110437785.269   110437785.268                    86055425.463          49.250          39.000                          39.500
G14  20906622.357    20906621.858    20906618.113    20906617.869       -1903.970       -1903.970       -1483.613       -1483.613   109865083.531   109865083.536    85609162.616    85609166.615          49.500          40.750          48.500          40.750
G15  23162158.150    23162158.336    23162154.716    23162153.912       -3011.167       -3011.167       -2346.364       -2346.364   121717975.948   121717975.946    94845198.295    94845169.292          41.250          36.750          36.500          36.500
G20  24641715.377    24641714.218                    24641710.780       -2205.642       -2205.642                       -1718.682   129493094.302   129493094.306                   100903706.344          34.750          16.000                          15.750
G23  24897478.002    24897477.760    24897473.833    24897474.086       -2591.869       -2591.869       -2019.637       -2019.637   130837134.587   130837134.589   101950998.757   101951005.755          36.750          18.500          36.500          18.250
G27  24162295.733    24162294.886    24162292.736    24162291.915        2959.097        2959.097        2305.790        2305.790   126973753.319   126973753.313    98940590.041    98940593.036          39.250          34.500          37.750          34.500
G28  21311999.426    21311998.344                    21311993.582       -2034.685       -2034.685                       -1585.469   111995352.071   111995352.073                    87269112.287          49.000          38.250                          38.250
G30  20530296.240    20530295.281    20530293.873    20530293.266         891.518         891.518         694.689         694.689   107887470.694   107887470.694    84068158.812    84068157.809          52.500          45.500          50.000          45.250
R01  22771894.871    22771895.043    22771891.052    22771891.499        4506.371        4506.371        3504.955        3504.955   121728815.387   121728815.389    94677959.798    94677962.801          44.250          43.500          36.250          36.000
R02  19812960.325    19812960.062    19812956.067    19812955.478         554.480         554.480         431.263         431.263   105725753.082   105725753.081    82231141.613    82231144.612          54.500          53.500          49.500          49.500
R03  22044573.358    22044573.322    22044567.904    22044567.502       -3365.663       -3365.663       -2617.738       -2617.738   118006333.017   118006333.024    91782683.654    91782695.660          49.000          47.750          44.750          43.750
R10  23069134.288    23069133.581                                        3975.129        3975.129                                   122971510.914   122971510.914                                          42.500          41.500
R11  19402424.260    19402424.401    19402418.092    19402418.155        1347.097        1347.097        1047.742        1047.742   103680702.949   103680702.948    80640558.201    80640557.205          54.250          53.750          53.000          52.000
R12  20276762.795    20276762.971    20276758.888    20276758.835       -2640.004       -2640.004       -2053.336       -2053.336   108314867.110   108314867.110    84244892.250    84244885.247          53.750          53.250          49.000          49.250
R20  21675936.614    21675935.470    21675932.967    21675932.419        -760.069        -760.069        -591.165        -591.165   115910973.796   115910973.795    90152973.227    90152968.225          37.750          36.250          45.500          45.750
R21  23246068.528    23246068.901    23246064.447    23246064.591       -4119.183       -4119.183       -3203.809       -3203.809   124394424.252   124394424.249    96751210.553    96751207.551          43.750          43.250          41.250          41.500
> 2021 01 03 00 04 00.0000000  0 20
G05  23973438.954    23973438.244    23973435.910    23973435.409        3180.876        3180.876        2478.605        2478.605   125981269.639   125981269.643    98167230.777    98167209.788          39.000          24.000          36.500          24.250
G07  22028320.382    22028319.886    22028315.061    22028315.200        2521.668        2521.668        1964.936        1964.936   115759630.457   115759630.457    90202315.917    90202318.914          48.250          37.500          42.250          37.500
G08  22319774.553    22319773.686    22319772.837    22319771.952         873.690         873.690         680.797         680.797   117291243.026   117291243.019    91395790.685    91395784.684          43.750          44.750          43.000          44.750
G11  24079233.952    24079233.326                    24079228.710       -2685.763       -2685.763                       -2092.802   126537243.982   126537243.985                    98600444.977          39.250          19.750                          19.750
G13  21007246.747    21007246.199                    21007241.475       -1455.384       -1455.384                       -1134.066   110393850.399   110393850.396                    86021190.504          50.500          39.250                          39.250
G14  20895799.435    20895799.036    20895795.208    20895795.027       -1887.711       -1887.711       -1470.943       -1470.943   109808208.960   109808208.965    85564844.764    85564848.765          49.000          40.750          48.750          40.250
G15  23145005.079    23145004.438    23144999.997    23144999.847       -2998.627       -2998.627       -2336.593       -2336.593   121627830.843   121627830.838    94774955.362    94774926.364          40.500          37.000          36.750          37.000
G20  24629167.027    24629166.626                    24629162.289       -2190.554       -2190.554                       -1706.925   129427152.046   129427152.033                   100852322.748          35.000          15.750                          15.500
G23  24882720.727    24882720.601    24882717.526    24882717.101       -2578.106       -2578.106       -2008.914       -2008.914   130759586.842   130759586.850   101890571.948   101890578.937          35.750          17.750          36.250          18.000
G27  24179225.801    24179225.035    24179224.063    24179222.861        2972.369        2972.369        2316.132        2316.132   127062725.297   127062725.296    99009918.857    99009921.860          39.000          34.500          38.250          34.250
G28  21300423.718    21300422.850                    21300418.102       -2020.657       -2020.657                       -1574.538   111934523.101   111934523.102                    87221713.087          48.500          38.000                          38.000
G30  20535429.935    20535429.090    20535427.426    20535426.974         907.033         907.033         706.779         706.779   107914448.756   107914448.758    84089180.687    84089179.681          52.000          45.750          49.500          45.500
R01  22797203.188    22797203.557    22797201.808    22797202.951        4513.338        4513.338        3510.374        3510.374   121864115.604   121864115.602    94783193.255    94783196.262          41.250          40.250          36.000          35.750
R02  19816156.803    19816156.520    19816152.487    19816152.140         582.534         582.534         453.082         453.082   105742809.817   105742809.818    82244407.960    82244410.959          54.750          53.750          50.000          49.500
R03  22025758.110    22025758.661    22025753.253    22025753.123       -3348.669       -3348.669       -2604.520       -2604.520   117905618.451   117905618.459    91704350.111    91704362.112          48.000          47.750          44.750          44.000
R10  23091516.078    23091515.759                                        3978.431        3978.431                                   123090817.262   123090817.254                                          43.000          42.250
R11  19410038.126    19410038.361    19410032.352    19410032.212        1365.249        1365.249        1061.861        1061.861   103721390.055   103721390.053    80672203.725    80672202.730          54.250          53.500          52.750          52.500
R12  20261977.784    20261978.033    20261973.921    20261973.678       -2625.273       -2625.273       -2041.879       -2041.879   108235889.886   108235889.887    84183465.530    84183458.526          53.750          52.750          49.000          49.000
R20  21671752.304    21671752.093    21671749.552    21671748.603        -731.591        -731.591        -569.016        -569.016   115888603.178   115888603.172    90135573.876    90135568.871          37.500          36.500          45.500          45.750
R21  23223004.852    23223004.505    23223000.400    23223000.068       -4109.229       -4109.229       -3196.067       -3196.067   124271000.665   124271000.666    96655214.461    96655211.457          44.000          42.500          42.000          41.750
> 2021 01 03 00 04 30.0000000  0 20
G05  23991624.916    23991624.064    23991620.880    23991620.264        3189.784        3189.784        2485.546        2485.546   126076831.229   126076831.229    98241694.307    98241673.300          41.750          26.750          36.750          26.500
G07  22042744.675    22042744.336    22042739.793    22042739.646        2531.757        2531.757        1972.798        1972.798   115835431.757   115835431.755    90261381.860    90261384.854          48.250          37.500          42.250          37.250
G08  22324821.747    22324821.187    22324820.361    22324819.642         894.706         894.706         697.174         697.174   117317768.561   117317768.560    91416459.943    91416453.944          45.750          44.750          43.500          44.500
G11  24063935.919    24063934.787                    24063929.951       -2673.639       -2673.639                       -2083.355   126456850.176   126456850.169                    98537800.513          39.250          20.250                          20.000
G13  20998990.219    20998989.643                    20998985.037       -1437.047       -1437.047                       -1119.777   110350462.804   110350462.802                    85987381.994          50.000          39.250                          39.250
G14  20885069.844    20885069.418    20885065.601    20885065.519       -1871.240       -1871.240       -1458.109       -1458.109   109751824.939   109751824.945    85520909.156    85520913.160          49.750          40.750          48.750          40.250
G15  23127923.138    23127922.716    23127918.918    23127918.263       -2985.654       -2985.654       -2326.484       -2326.484   121538066.500   121538066.499    94705009.142    94704980.141          42.250          37.000          37.000          37.250
